{"type":"FeatureCollection","features":[{"geometry": {"type": "Point", "coordinates": [-75.20571146321842, 39.98157587999912]}, "type": "Feature", "id": 0, "properties": {"TYPE_2": "Primary", "TYPE": "Pedestrian and Vehicular", "LOCATION": "West Fairmount Park", "ENTRANCE_T": "Trail - Park, Parking Lot", "ADDRESS": "WEST RIVER DR"}},{"geometry": {"type": "Point", "coordinates": [-75.1982482922658, 39.97720666038999]}, "type": "Feature", "id": 1, "properties": {"TYPE_2": "Secondary", "TYPE": "Vehicular", "LOCATION": "West Fairmount Park", "ENTRANCE_T": "Road", "ADDRESS": "SWEETBRIAR DR"}},{"geometry": {"type": "Point", "coordinates": [-75.19246525337735, 39.968217097132445]}, "type": "Feature", "id": 2, "properties": {"TYPE_2": "Primary", "TYPE": "Vehicular", "LOCATION": "West Fairmount Park", "ENTRANCE_T": "Road", "ADDRESS": "34TH ST"}},{"geometry": {"type": "Point", "coordinates": [-75.18419479602467, 39.96417528872246]}, "type": "Feature", "id": 3, "properties": {"TYPE_2": "Primary", "TYPE": "Pedestrian", "LOCATION": "West Fairmount Park", "ENTRANCE_T": "Trail - Park", "ADDRESS": "MARTIN LUTHER KING DR"}},{"geometry": {"type": "Point", "coordinates": [-75.1844238424236, 39.964693013267585]}, "type": "Feature", "id": 4, "properties": {"TYPE_2": "Primary", "TYPE": "Pedestrian and Vehicular", "LOCATION": "West Fairmount Park", "ENTRANCE_T": "Trail - Park, Road", "ADDRESS": "MARTIN LUTHER KING DR"}},{"geometry": {"type": "Point", "coordinates": [-75.19863774153964, 39.97475105755976]}, "type": "Feature", "id": 5, "properties": {"TYPE_2": "Secondary", "TYPE": "Vehicular", "LOCATION": "West Fairmount Park", "ENTRANCE_T": "Road", "ADDRESS": "GIRARD AVE"}},{"geometry": {"type": "Point", "coordinates": [-75.19916611625467, 39.97480343295437]}, "type": "Feature", "id": 6, "properties": {"TYPE_2": "Secondary", "TYPE": "Vehicular", "LOCATION": "West Fairmount Park", "ENTRANCE_T": "Road", "ADDRESS": "SCHUYLKILL EXPY"}},{"geometry": {"type": "Point", "coordinates": [-75.19961271984477, 39.97475363460179]}, "type": "Feature", "id": 7, "properties": {"LOCATION_2": "Philadelphia Zoological Gardens", "TYPE_2": "Primary", "LOCATION": "West Fairmount Park", "ADDRESS": "3400 W GIRARD AVE", "TYPE": "Pedestrian", "ENTRANCE_T": "Trail - Park"}},{"geometry": {"type": "Point", "coordinates": [-75.20173069773696, 39.974527459028685]}, "type": "Feature", "id": 8, "properties": {"LOCATION_2": "Philadelphia Zoological Gardens", "TYPE_2": "Primary", "LOCATION": "West Fairmount Park", "ADDRESS": "3400 W GIRARD AVE", "TYPE": "Pedestrian", "ENTRANCE_T": "Trail - Park, Parking Lot"}},{"geometry": {"type": "Point", "coordinates": [-75.20267488610513, 39.97441876864011]}, "type": "Feature", "id": 9, "properties": {"LOCATION_2": "Philadelphia Zoological Gardens", "TYPE_2": "Primary", "LOCATION": "West Fairmount Park", "ADDRESS": "3400 W GIRARD AVE", "TYPE": "Pedestrian", "ENTRANCE_T": "Trail - Park, Parking Lot"}},{"geometry": {"type": "Point", "coordinates": [-75.20492255643731, 39.97474994259102]}, "type": "Feature", "id": 10, "properties": {"LOCATION_2": "Philadelphia Zoological Gardens", "TYPE_2": "Primary", "LOCATION": "West Fairmount Park", "ADDRESS": "3400 W GIRARD AVE", "TYPE": "Pedestrian and Vehicular", "ENTRANCE_T": "Trail - Park"}},{"geometry": {"type": "Point", "coordinates": [-75.20431753535372, 39.97452130595952]}, "type": "Feature", "id": 11, "properties": {"TYPE_2": "Primary", "TYPE": "Pedestrian", "LOCATION": "West Fairmount Park", "ENTRANCE_T": "Trail - Park", "ADDRESS": "3400 W GIRARD AVE"}},{"geometry": {"type": "Point", "coordinates": [-75.2037822240554, 39.97432176464299]}, "type": "Feature", "id": 12, "properties": {"LOCATION_2": "Philadelphia Zoological Gardens", "TYPE_2": "Primary", "LOCATION": "West Fairmount Park", "ADDRESS": "3400 W GIRARD AVE", "TYPE": "Pedestrian", "ENTRANCE_T": "Trail - Park, Parking Lot"}},{"geometry": {"type": "Point", "coordinates": [-75.2067077261725, 39.975409575481315]}, "type": "Feature", "id": 13, "properties": {"LOCATION_2": "Main Entrance", "TYPE_2": "Primary", "LOCATION": "West Fairmount Park", "ADDRESS": "41ST ST", "TYPE": "Pedestrian and Vehicular", "ENTRANCE_T": "Trail - Park, Road"}},{"geometry": {"type": "Point", "coordinates": [-75.2093390093952, 39.97638225870076]}, "type": "Feature", "id": 14, "properties": {"TYPE_2": "Primary", "TYPE": "Pedestrian", "LOCATION": "West Fairmount Park", "ENTRANCE_T": "Trail - Park", "ADDRESS": "41ST ST"}},{"geometry": {"type": "Point", "coordinates": [-75.20920098907017, 39.9763308794414]}, "type": "Feature", "id": 15, "properties": {"TYPE_2": "Primary", "TYPE": "Pedestrian", "LOCATION": "West Fairmount Park", "ENTRANCE_T": "Trail - Park", "ADDRESS": "41ST ST"}},{"geometry": {"type": "Point", "coordinates": [-75.21030202768331, 39.97673612904947]}, "type": "Feature", "id": 16, "properties": {"LOCATION_2": "Main Entrance, Memorial Hall", "TYPE_2": "Primary", "LOCATION": "West Fairmount Park", "ADDRESS": "41ST ST", "TYPE": "Pedestrian and Vehicular", "ENTRANCE_T": "Trail - Park, Road"}},{"geometry": {"type": "Point", "coordinates": [-75.21123195476034, 39.97708394401657]}, "type": "Feature", "id": 17, "properties": {"LOCATION_2": "Main Entrance, Memorial Hall", "TYPE_2": "Primary", "LOCATION": "West Fairmount Park", "ADDRESS": "41ST ST", "TYPE": "Pedestrian and Vehicular", "ENTRANCE_T": "Trail - Park, Road"}},{"geometry": {"type": "Point", "coordinates": [-75.21329853657309, 39.9778425666723]}, "type": "Feature", "id": 18, "properties": {"LOCATION_2": "Case Building", "TYPE_2": "Primary", "LOCATION": "West Fairmount Park", "ADDRESS": "4301 S CONCOURSE DR", "TYPE": "Pedestrian", "ENTRANCE_T": "Trail - Park"}},{"geometry": {"type": "Point", "coordinates": [-75.21351020351767, 39.9779323169129]}, "type": "Feature", "id": 19, "properties": {"TYPE_2": "Primary", "TYPE": "Pedestrian and Vehicular", "LOCATION": "West Fairmount Park", "ENTRANCE_T": "Trail - Park, Road", "ADDRESS": "BELMONT AVE"}},{"geometry": {"type": "Point", "coordinates": [-75.22128272105147, 39.98080324129026]}, "type": "Feature", "id": 20, "properties": {"TYPE_2": "Primary", "TYPE": "Pedestrian", "LOCATION": "West Fairmount Park", "ENTRANCE_T": "Trail - Park", "ADDRESS": "PARKSIDE AVE"}},{"geometry": {"type": "Point", "coordinates": [-75.2215314415097, 39.980897879656396]}, "type": "Feature", "id": 21, "properties": {"TYPE_2": "Primary", "TYPE": "Pedestrian", "LOCATION": "West Fairmount Park", "ENTRANCE_T": "Trail - Park", "ADDRESS": "PARKSIDE AVE"}},{"geometry": {"type": "Point", "coordinates": [-75.22397842773933, 39.98166310837805]}, "type": "Feature", "id": 22, "properties": {"TYPE_2": "Primary", "TYPE": "Pedestrian and Vehicular", "LOCATION": "West Fairmount Park", "ENTRANCE_T": "Trail - Park, Road", "ADDRESS": "PARKSIDE AVE"}},{"geometry": {"type": "Point", "coordinates": [-75.22625942167898, 39.981914193441604]}, "type": "Feature", "id": 23, "properties": {"TYPE_2": "Primary", "TYPE": "Pedestrian", "LOCATION": "West Fairmount Park", "ENTRANCE_T": "Trail - Park", "ADDRESS": "PARKSIDE AVE"}},{"geometry": {"type": "Point", "coordinates": [-75.22689944753812, 39.98272899563749]}, "type": "Feature", "id": 24, "properties": {"LOCATION_2": "Evans Playground Building", "TYPE_2": "Primary", "LOCATION": "West Fairmount Park", "ADDRESS": "PARKSIDE AVE", "TYPE": "Pedestrian", "ENTRANCE_T": "Trail - Park"}},{"geometry": {"type": "Point", "coordinates": [-75.22690724554535, 39.983328240039214]}, "type": "Feature", "id": 25, "properties": {"LOCATION_2": "Evans Playground Building", "TYPE_2": "Primary", "LOCATION": "West Fairmount Park", "ADDRESS": "PARKSIDE AVE", "TYPE": "Pedestrian and Vehicular", "ENTRANCE_T": "Trail - Park, Parking Lot"}},{"geometry": {"type": "Point", "coordinates": [-75.22002251958824, 39.99020211899073]}, "type": "Feature", "id": 26, "properties": {"TYPE_2": "Primary", "TYPE": "Pedestrian and Vehicular", "LOCATION": "West Fairmount Park", "ENTRANCE_T": "Trail - Park, Road", "ADDRESS": "WYNNEFIELD AVE"}},{"geometry": {"type": "Point", "coordinates": [-75.21878755289121, 39.99250234796013]}, "type": "Feature", "id": 27, "properties": {"TYPE_2": "Secondary", "TYPE": "Vehicular", "LOCATION": "West Fairmount Park", "ENTRANCE_T": "Road", "ADDRESS": "BELMONT MANSION DR"}},{"geometry": {"type": "Point", "coordinates": [-75.2178225200562, 39.99361306162916]}, "type": "Feature", "id": 28, "properties": {"TYPE_2": "Primary", "TYPE": "Pedestrian and Vehicular", "LOCATION": "West Fairmount Park", "ENTRANCE_T": "Trail - Park, Road", "ADDRESS": "BELMONT AVE"}},{"geometry": {"type": "Point", "coordinates": [-75.21493579825675, 39.996419526385836]}, "type": "Feature", "id": 29, "properties": {"TYPE_2": "Primary", "TYPE": "Pedestrian and Vehicular", "LOCATION": "West Fairmount Park", "ENTRANCE_T": "Trail - Park, Road", "ADDRESS": "EDGLEY AVE"}},{"geometry": {"type": "Point", "coordinates": [-75.20715058350025, 39.99903127394419]}, "type": "Feature", "id": 30, "properties": {"TYPE_2": "Primary", "TYPE": "Pedestrian and Vehicular", "LOCATION": "West Fairmount Park", "ENTRANCE_T": "Trail - Park, Road", "ADDRESS": "FORD RD"}},{"geometry": {"type": "Point", "coordinates": [-75.20647652460624, 39.999762487973044]}, "type": "Feature", "id": 31, "properties": {"TYPE_2": "Primary", "TYPE": "Pedestrian", "LOCATION": "West Fairmount Park", "ENTRANCE_T": "Trail - Park", "ADDRESS": "WENTWORTH RD"}},{"geometry": {"type": "Point", "coordinates": [-75.20216554405147, 40.004588478712456]}, "type": "Feature", "id": 32, "properties": {"TYPE_2": "Primary", "TYPE": "Vehicular", "LOCATION": "West Fairmount Park", "ENTRANCE_T": "Road", "ADDRESS": "FALLS RD"}},{"geometry": {"type": "Point", "coordinates": [-75.20199980716926, 40.00472432173926]}, "type": "Feature", "id": 33, "properties": {"TYPE_2": "Primary", "TYPE": "Pedestrian", "LOCATION": "West Fairmount Park", "ENTRANCE_T": "Trail - Park", "ADDRESS": "FALLS RD"}},{"geometry": {"type": "Point", "coordinates": [-75.22458660623877, 40.07964632110515]}, "type": "Feature", "id": 34, "properties": {"TYPE_2": "Primary", "TYPE": "Pedestrian and Vehicular", "LOCATION": "Wissahickon Valley Park", "ENTRANCE_T": "Trail - Park, Road", "ADDRESS": "BELLS MILL RD"}},{"geometry": {"type": "Point", "coordinates": [-75.21261762623777, 40.058274257245955]}, "type": "Feature", "id": 35, "properties": {"TYPE_2": "Primary", "TYPE": "Vehicular", "LOCATION": "Wissahickon Valley Park", "ENTRANCE_T": "Road", "ADDRESS": "VALLEY GREEN RD"}},{"geometry": {"type": "Point", "coordinates": [-75.19650516073912, 40.06704067980341]}, "type": "Feature", "id": 36, "properties": {"TYPE_2": "Secondary", "TYPE": "Vehicular", "LOCATION": "Wissahickon Valley Park", "ENTRANCE_T": "Road", "ADDRESS": "GERMANTOWN AVE"}},{"geometry": {"type": "Point", "coordinates": [-75.19629424208661, 40.06631585539247]}, "type": "Feature", "id": 37, "properties": {"TYPE_2": "Secondary", "TYPE": "Vehicular", "LOCATION": "Wissahickon Valley Park", "ENTRANCE_T": "Road", "ADDRESS": "GERMANTOWN AVE"}},{"geometry": {"type": "Point", "coordinates": [-75.19169770458444, 40.038944742725285]}, "type": "Feature", "id": 38, "properties": {"TYPE_2": "Primary", "TYPE": "Vehicular", "LOCATION": "Wissahickon Valley Park", "ENTRANCE_T": "Road", "ADDRESS": "LINCOLN DR"}},{"geometry": {"type": "Point", "coordinates": [-75.19126311481814, 40.03872798967011]}, "type": "Feature", "id": 39, "properties": {"TYPE_2": "Secondary", "TYPE": "Vehicular", "LOCATION": "Wissahickon Valley Park", "ENTRANCE_T": "Road", "ADDRESS": "JOHNSON ST"}},{"geometry": {"type": "Point", "coordinates": [-75.11225955899847, 40.04741070226393]}, "type": "Feature", "id": 40, "properties": {"TYPE_2": "Primary", "TYPE": "Pedestrian", "LOCATION": "Tacony Creek Park", "ENTRANCE_T": "Trail - Park", "ADDRESS": "TOOKANY CREEK PKWY"}},{"geometry": {"type": "Point", "coordinates": [-75.11322118876097, 40.042935323242965]}, "type": "Feature", "id": 41, "properties": {"TYPE_2": "Primary", "TYPE": "Pedestrian", "LOCATION": "Tacony Creek Park", "ENTRANCE_T": "Trail - Park", "ADDRESS": "CRESCENTVILLE RD"}},{"geometry": {"type": "Point", "coordinates": [-75.11326266451324, 40.042607410620086]}, "type": "Feature", "id": 42, "properties": {"TYPE_2": "Primary", "TYPE": "Pedestrian", "LOCATION": "Tacony Creek Park", "ENTRANCE_T": "Trail - Park", "ADDRESS": "ADAMS AVE"}},{"geometry": {"type": "Point", "coordinates": [-75.11314416795027, 40.04247329255519]}, "type": "Feature", "id": 43, "properties": {"TYPE_2": "Primary", "TYPE": "Pedestrian", "LOCATION": "Tacony Creek Park", "ENTRANCE_T": "Trail - Park", "ADDRESS": "ADAMS AVE"}},{"geometry": {"type": "Point", "coordinates": [-75.11235134795945, 40.04187608772062]}, "type": "Feature", "id": 44, "properties": {"TYPE_2": "Primary", "TYPE": "Pedestrian", "LOCATION": "Tacony Creek Park", "ENTRANCE_T": "Trail - Park", "ADDRESS": "ADAMS AVE"}},{"geometry": {"type": "Point", "coordinates": [-75.11341561316765, 40.04247724390167]}, "type": "Feature", "id": 45, "properties": {"TYPE_2": "Primary", "TYPE": "Pedestrian", "LOCATION": "Tacony Creek Park", "ENTRANCE_T": "Trail - Park", "ADDRESS": "ADAMS AVE"}},{"geometry": {"type": "Point", "coordinates": [-75.11388932162465, 40.04229018905558]}, "type": "Feature", "id": 46, "properties": {"TYPE_2": "Primary", "TYPE": "Pedestrian", "LOCATION": "Tacony Creek Park", "ENTRANCE_T": "Trail - Park", "ADDRESS": "CRESCENTVILLE RD"}},{"geometry": {"type": "Point", "coordinates": [-75.11639015662087, 40.03949300179585]}, "type": "Feature", "id": 47, "properties": {"LOCATION_2": "Hammond and Nedro Building", "TYPE_2": "Primary", "LOCATION": "Tacony Creek Park", "ADDRESS": "HAMMOND AVE", "TYPE": "Pedestrian and Vehicular", "ENTRANCE_T": "Trail - Park, Road"}},{"geometry": {"type": "Point", "coordinates": [-75.23214483448264, 40.08435164364723]}, "type": "Feature", "id": 48, "properties": {"TYPE_2": "Primary", "TYPE": "Vehicular", "LOCATION": "Wissahickon Valley Park", "ENTRANCE_T": "Parking Lot", "ADDRESS": "120 NORTHWESTERN AVE"}},{"geometry": {"type": "Point", "coordinates": [-75.2319264130374, 40.08456712860887]}, "type": "Feature", "id": 49, "properties": {"TYPE_2": "Primary", "TYPE": "Vehicular", "LOCATION": "Wissahickon Valley Park", "ENTRANCE_T": "Parking Lot", "ADDRESS": "120 NORTHWESTERN AVE"}},{"geometry": {"type": "Point", "coordinates": [-75.23263753437423, 40.08380254794099]}, "type": "Feature", "id": 50, "properties": {"TYPE_2": "Primary", "TYPE": "Pedestrian", "LOCATION": "Wissahickon Valley Park", "ENTRANCE_T": "Trail - Park", "ADDRESS": "200 NORTHWESTERN AVE"}},{"geometry": {"type": "Point", "coordinates": [-75.23282541904103, 40.08359801395112]}, "type": "Feature", "id": 51, "properties": {"TYPE_2": "Primary", "TYPE": "Pedestrian", "LOCATION": "Wissahickon Valley Park", "ENTRANCE_T": "Trail - Park", "ADDRESS": "200 NORTHWESTERN AVE"}},{"geometry": {"type": "Point", "coordinates": [-75.2329190494478, 40.08357737837137]}, "type": "Feature", "id": 52, "properties": {"TYPE_2": "Primary", "TYPE": "Vehicular", "LOCATION": "Wissahickon Valley Park", "ENTRANCE_T": "Park", "ADDRESS": "200 NORTHWESTERN AVE"}},{"geometry": {"type": "Point", "coordinates": [-75.23128491810026, 40.08517673501951]}, "type": "Feature", "id": 53, "properties": {"TYPE_2": "Primary", "TYPE": "Pedestrian", "LOCATION": "Wissahickon Valley Park", "ENTRANCE_T": "Park", "ADDRESS": "120 NORTHWESTERN AVE"}},{"geometry": {"type": "Point", "coordinates": [-75.22896407776071, 40.08495855160364]}, "type": "Feature", "id": 54, "properties": {"LOCATION_2": "Gate", "TYPE_2": "Primary", "LOCATION": "Wissahickon Valley Park", "ADDRESS": "GERMANTOWN AVE", "TYPE": "Pedestrian", "ENTRANCE_T": "Park"}},{"geometry": {"type": "Point", "coordinates": [-75.22811124071055, 40.08404615034268]}, "type": "Feature", "id": 55, "properties": {"TYPE_2": "Primary", "TYPE": "Pedestrian", "LOCATION": "Wissahickon Valley Park", "ENTRANCE_T": "Trail - Park", "ADDRESS": "GERMANTOWN AVE"}},{"geometry": {"type": "Point", "coordinates": [-75.23293032244949, 40.08348744954748]}, "type": "Feature", "id": 56, "properties": {"TYPE_2": "Primary", "TYPE": "Pedestrian", "LOCATION": "Wissahickon Valley Park", "ENTRANCE_T": "Trail - Park", "ADDRESS": "200 NORTHWESTERN AVE"}},{"geometry": {"type": "Point", "coordinates": [-75.23584771901646, 40.08074691378015]}, "type": "Feature", "id": 57, "properties": {"TYPE_2": "Primary", "TYPE": "Pedestrian and Vehicular", "LOCATION": "Wissahickon Valley Park", "ENTRANCE_T": "Trail - Park, Parking Lot", "ADDRESS": "NORTHWESTERN AVE"}},{"geometry": {"type": "Point", "coordinates": [-75.23858813478192, 40.07798598940428]}, "type": "Feature", "id": 58, "properties": {"TYPE_2": "Primary", "TYPE": "Pedestrian and Vehicular", "LOCATION": "Wissahickon Valley Park", "ENTRANCE_T": "Trail - Park", "ADDRESS": "NORTHWESTERN AVE"}},{"geometry": {"type": "Point", "coordinates": [-75.23903270371684, 40.077545150659674]}, "type": "Feature", "id": 59, "properties": {"TYPE_2": "Primary", "TYPE": "Vehicular", "LOCATION": "Wissahickon Valley Park", "ENTRANCE_T": "Trail - Park", "ADDRESS": "NORTHWESTERN AVE"}},{"geometry": {"type": "Point", "coordinates": [-75.23909280124647, 40.07220899569729]}, "type": "Feature", "id": 60, "properties": {"TYPE_2": "Secondary", "TYPE": "Vehicular", "LOCATION": "Wissahickon Valley Park", "ENTRANCE_T": "Road", "ADDRESS": "LYKENS LN"}},{"geometry": {"type": "Point", "coordinates": [-75.2378371448305, 40.07006593470596]}, "type": "Feature", "id": 61, "properties": {"TYPE_2": "Secondary", "TYPE": "Vehicular", "LOCATION": "Wissahickon Valley Park", "ENTRANCE_T": "Road", "ADDRESS": "LYKENS LN"}},{"geometry": {"type": "Point", "coordinates": [-75.2301119154699, 40.07499798826122]}, "type": "Feature", "id": 62, "properties": {"TYPE_2": "Primary", "TYPE": "Pedestrian", "LOCATION": "Wissahickon Valley Park", "ENTRANCE_T": "Trail - Park", "ADDRESS": "CLYDE LN"}},{"geometry": {"type": "Point", "coordinates": [-75.23333858015215, 40.07063156839367]}, "type": "Feature", "id": 63, "properties": {"TYPE_2": "Secondary", "TYPE": "Vehicular", "LOCATION": "Wissahickon Valley Park", "ENTRANCE_T": "Road", "ADDRESS": "SEQUOIA RD"}},{"geometry": {"type": "Point", "coordinates": [-75.23207816418267, 40.0686970610872]}, "type": "Feature", "id": 64, "properties": {"TYPE_2": "Secondary", "TYPE": "Vehicular", "LOCATION": "Wissahickon Valley Park", "ENTRANCE_T": "Road", "ADDRESS": "SEQUOIA RD"}},{"geometry": {"type": "Point", "coordinates": [-75.23119384000756, 40.06736672788135]}, "type": "Feature", "id": 65, "properties": {"LOCATION_2": "Courtesy Stable Barn", "TYPE_2": "Primary", "LOCATION": "Wissahickon Valley Park", "ADDRESS": "901 CATHEDRAL DR", "TYPE": "Vehicular", "ENTRANCE_T": "Road"}},{"geometry": {"type": "Point", "coordinates": [-75.22972503687835, 40.0676843469875]}, "type": "Feature", "id": 66, "properties": {"TYPE_2": "Primary", "TYPE": "Pedestrian and Vehicular", "LOCATION": "Wissahickon Valley Park", "ENTRANCE_T": "Trail - Park", "ADDRESS": "CATHEDRAL DR"}},{"geometry": {"type": "Point", "coordinates": [-75.22501825555221, 40.066658163330885]}, "type": "Feature", "id": 67, "properties": {"TYPE_2": "Primary", "TYPE": "Pedestrian", "LOCATION": "Wissahickon Valley Park", "ENTRANCE_T": "Trail - Park", "ADDRESS": "CATHEDRAL DR"}},{"geometry": {"type": "Point", "coordinates": [-75.22677329886758, 40.061836854168725]}, "type": "Feature", "id": 68, "properties": {"TYPE_2": "Primary", "TYPE": "Pedestrian", "LOCATION": "Wissahickon Valley Park", "ENTRANCE_T": "Trail - Park", "ADDRESS": "OLD LINE RD"}},{"geometry": {"type": "Point", "coordinates": [-75.22830287341496, 40.0604273639412]}, "type": "Feature", "id": 69, "properties": {"TYPE_2": "Secondary", "TYPE": "Vehicular", "LOCATION": "Wissahickon Valley Park", "ENTRANCE_T": "Road", "ADDRESS": "SUMMIT AVE"}},{"geometry": {"type": "Point", "coordinates": [-75.2298607300187, 40.059698906893686]}, "type": "Feature", "id": 70, "properties": {"TYPE_2": "Secondary", "TYPE": "Vehicular", "LOCATION": "Wissahickon Valley Park", "ENTRANCE_T": "Road", "ADDRESS": "SUMMIT AVE"}},{"geometry": {"type": "Point", "coordinates": [-75.22967875147982, 40.05973549153043]}, "type": "Feature", "id": 71, "properties": {"TYPE_2": "Primary", "TYPE": "Pedestrian", "LOCATION": "Wissahickon Valley Park", "ENTRANCE_T": "Trail - Park", "ADDRESS": "SUMMIT AVE"}},{"geometry": {"type": "Point", "coordinates": [-75.2331148886024, 40.06110212900899]}, "type": "Feature", "id": 72, "properties": {"TYPE_2": "Secondary", "TYPE": "Pedestrian and Vehicular", "LOCATION": "Wissahickon Valley Park", "ENTRANCE_T": "Trail - Park", "ADDRESS": "SEFFERT ST"}},{"geometry": {"type": "Point", "coordinates": [-75.2328420002054, 40.06160034188866]}, "type": "Feature", "id": 73, "properties": {"TYPE_2": "Secondary", "TYPE": "Pedestrian and Vehicular", "LOCATION": "Wissahickon Valley Park", "ENTRANCE_T": "Trail - Park", "ADDRESS": "SEFFERT ST"}},{"geometry": {"type": "Point", "coordinates": [-75.2326287742052, 40.061702945386045]}, "type": "Feature", "id": 74, "properties": {"TYPE_2": "Secondary", "TYPE": "Pedestrian and Vehicular", "LOCATION": "Wissahickon Valley Park", "ENTRANCE_T": "Trail - Park", "ADDRESS": "SEFFERT ST"}},{"geometry": {"type": "Point", "coordinates": [-75.23101508514591, 40.05381944069907]}, "type": "Feature", "id": 75, "properties": {"TYPE_2": "Primary", "TYPE": "Pedestrian and Vehicular", "LOCATION": "Wissahickon Valley Park", "ENTRANCE_T": "Trail - Park, Road", "ADDRESS": "WISES MILL RD"}},{"geometry": {"type": "Point", "coordinates": [-75.23076313076362, 40.053713393279374]}, "type": "Feature", "id": 76, "properties": {"TYPE_2": "Primary", "TYPE": "Pedestrian", "LOCATION": "Wissahickon Valley Park", "ENTRANCE_T": "Trail - Park", "ADDRESS": "HENRY AVE"}},{"geometry": {"type": "Point", "coordinates": [-75.22697042323234, 40.05263487897114]}, "type": "Feature", "id": 77, "properties": {"LOCATION_2": "Wigard Street House", "TYPE_2": "Primary", "LOCATION": "Wissahickon Valley Park", "ADDRESS": "WIGARD AVE", "TYPE": "Pedestrian and Vehicular", "ENTRANCE_T": "Trail - Park, Road"}},{"geometry": {"type": "Point", "coordinates": [-75.22305469588183, 40.050821117006585]}, "type": "Feature", "id": 78, "properties": {"LOCATION_2": "Wissahickon Offices - NW Philly", "TYPE_2": "Primary", "LOCATION": "Wissahickon Valley Park", "ADDRESS": "HENRY AVE", "TYPE": "Pedestrian and Vehicular", "ENTRANCE_T": "Trail - Park, Road"}},{"geometry": {"type": "Point", "coordinates": [-75.2180626740758, 40.048507161286025]}, "type": "Feature", "id": 79, "properties": {"LOCATION_2": "Saul High School", "TYPE_2": "Primary", "LOCATION": "Wissahickon Valley Park", "ADDRESS": "HENRY AVE", "TYPE": "Pedestrian", "ENTRANCE_T": "Trail - Park"}},{"geometry": {"type": "Point", "coordinates": [-75.21871776343525, 40.04875635508203]}, "type": "Feature", "id": 80, "properties": {"LOCATION_2": "Saul High School", "TYPE_2": "Secondary", "LOCATION": "Wissahickon Valley Park", "ADDRESS": "HENRY AVE", "TYPE": "Vehicular", "ENTRANCE_T": "Road"}},{"geometry": {"type": "Point", "coordinates": [-75.21757640812673, 40.04622984697849]}, "type": "Feature", "id": 81, "properties": {"LOCATION_2": "Pachella Field Shelter & Bath", "TYPE_2": "Primary", "LOCATION": "Wissahickon Valley Park", "ADDRESS": "HENRY AVE", "TYPE": "Pedestrian and Vehicular", "ENTRANCE_T": "Trail - Park, Road"}},{"geometry": {"type": "Point", "coordinates": [-75.21968327865959, 40.04297746346013]}, "type": "Feature", "id": 82, "properties": {"TYPE_2": "Primary", "TYPE": "Pedestrian", "LOCATION": "Wissahickon Valley Park", "ENTRANCE_T": "Trail - Park", "ADDRESS": "GORGAS LN"}},{"geometry": {"type": "Point", "coordinates": [-75.20954508539053, 40.03483668152554]}, "type": "Feature", "id": 83, "properties": {"TYPE_2": "Primary", "TYPE": "Pedestrian", "LOCATION": "Wissahickon Valley Park", "ENTRANCE_T": "Trail - Park", "ADDRESS": "JANNETTE ST"}},{"geometry": {"type": "Point", "coordinates": [-75.20986079182003, 40.03592836924842]}, "type": "Feature", "id": 84, "properties": {"TYPE_2": "Primary", "TYPE": "Pedestrian", "LOCATION": "Wissahickon Valley Park", "ENTRANCE_T": "Trail - Park", "ADDRESS": "DUPONT ST"}},{"geometry": {"type": "Point", "coordinates": [-75.20554185815264, 40.0325816334405]}, "type": "Feature", "id": 85, "properties": {"TYPE_2": "Primary", "TYPE": "Pedestrian", "LOCATION": "Wissahickon Valley Park", "ENTRANCE_T": "Trail - Park", "ADDRESS": "ROXBOROUGH & MAGDALENA"}},{"geometry": {"type": "Point", "coordinates": [-75.20547430638345, 40.02867192304078]}, "type": "Feature", "id": 86, "properties": {"LOCATION_2": "Walnut Lane Golf Course", "TYPE_2": "Secondary", "LOCATION": "Wissahickon Valley Park", "ADDRESS": "700 WALNUT LN", "TYPE": "Vehicular", "ENTRANCE_T": "Road"}},{"geometry": {"type": "Point", "coordinates": [-75.203826097671, 40.03016785206159]}, "type": "Feature", "id": 87, "properties": {"LOCATION_2": "Walnut Lane Golf Course", "TYPE_2": "Secondary", "LOCATION": "Wissahickon Valley Park", "ADDRESS": "800 WALNUT LN", "TYPE": "Vehicular", "ENTRANCE_T": "Road"}},{"geometry": {"type": "Point", "coordinates": [-75.20367944488399, 40.03008096063179]}, "type": "Feature", "id": 88, "properties": {"LOCATION_2": "Walnut Lane Golf Course", "TYPE_2": "Primary", "LOCATION": "Wissahickon Valley Park", "ADDRESS": "800 WALNUT LN", "TYPE": "Vehicular", "ENTRANCE_T": "Road, Parking Lot"}},{"geometry": {"type": "Point", "coordinates": [-75.20333256006563, 40.02953212267982]}, "type": "Feature", "id": 89, "properties": {"LOCATION_2": "Walnut Lane Golf Course", "TYPE_2": "Primary", "LOCATION": "Wissahickon Valley Park", "ADDRESS": "800 WALNUT LN", "TYPE": "Pedestrian", "ENTRANCE_T": "Trail - Park"}},{"geometry": {"type": "Point", "coordinates": [-75.20132058265241, 40.03051996135192]}, "type": "Feature", "id": 90, "properties": {"LOCATION_2": "Walnut Lane Golf Course", "TYPE_2": "Primary", "LOCATION": "Wissahickon Valley Park", "ADDRESS": "800 WALNUT LN", "TYPE": "Pedestrian", "ENTRANCE_T": "Trail - Park"}},{"geometry": {"type": "Point", "coordinates": [-75.19872954373861, 40.03315585394541]}, "type": "Feature", "id": 91, "properties": {"TYPE_2": "Primary", "TYPE": "Pedestrian", "LOCATION": "Wissahickon Valley Park", "ENTRANCE_T": "Trail - Park", "ADDRESS": "WALNUT LN"}},{"geometry": {"type": "Point", "coordinates": [-75.19613147143545, 40.03288888113056]}, "type": "Feature", "id": 92, "properties": {"LOCATION_2": "Blue Bell Picnic Pavilion & Bath", "TYPE_2": "Primary", "LOCATION": "Wissahickon Valley Park", "ADDRESS": "694 WALNUT LN", "TYPE": "Pedestrian", "ENTRANCE_T": "Trail - Park, Road, Parkling lot"}},{"geometry": {"type": "Point", "coordinates": [-75.19389010887905, 40.03206125252789]}, "type": "Feature", "id": 93, "properties": {"TYPE_2": "Primary", "TYPE": "Pedestrian", "LOCATION": "Wissahickon Valley Park", "ENTRANCE_T": "Trail - Park", "ADDRESS": "WALNUT LN"}},{"geometry": {"type": "Point", "coordinates": [-75.19236186522949, 40.03190862053056]}, "type": "Feature", "id": 94, "properties": {"TYPE_2": "Primary", "TYPE": "Pedestrian", "LOCATION": "Wissahickon Valley Park", "ENTRANCE_T": "Trail - Park", "ADDRESS": "WALNUT LN"}},{"geometry": {"type": "Point", "coordinates": [-75.19184096337911, 40.03200359466434]}, "type": "Feature", "id": 95, "properties": {"TYPE_2": "Primary", "TYPE": "Pedestrian", "LOCATION": "Wissahickon Valley Park", "ENTRANCE_T": "Trail - Park", "ADDRESS": "WALNUT LN"}},{"geometry": {"type": "Point", "coordinates": [-75.1890354572181, 40.03180286105354]}, "type": "Feature", "id": 96, "properties": {"TYPE_2": "Primary", "TYPE": "Pedestrian", "LOCATION": "Wissahickon Valley Park", "ENTRANCE_T": "Trail - Park", "ADDRESS": "WISSAHICKON AVE"}},{"geometry": {"type": "Point", "coordinates": [-75.18870426197323, 40.031482017070594]}, "type": "Feature", "id": 97, "properties": {"LOCATION_2": "Rittenhouse Town", "TYPE_2": "Primary", "LOCATION": "Wissahickon Valley Park", "ADDRESS": "5800 WISSAHICKON AVE", "TYPE": "Pedestrian and Vehicular", "ENTRANCE_T": "Trail - Park, Road"}},{"geometry": {"type": "Point", "coordinates": [-75.18898090272289, 40.03184418198408]}, "type": "Feature", "id": 98, "properties": {"TYPE_2": "Secondary", "TYPE": "Vehicular", "LOCATION": "Wissahickon Valley Park", "ENTRANCE_T": "Road", "ADDRESS": "WISSAHICKON AVE"}},{"geometry": {"type": "Point", "coordinates": [-75.18707357970719, 40.03014893845145]}, "type": "Feature", "id": 99, "properties": {"TYPE_2": "Secondary", "TYPE": "Vehicular", "LOCATION": "Wissahickon Valley Park", "ENTRANCE_T": "Road", "ADDRESS": "WISSAHICKON AVE"}},{"geometry": {"type": "Point", "coordinates": [-75.18788082501302, 40.03078739515157]}, "type": "Feature", "id": 100, "properties": {"LOCATION_2": "Rittenhouse Town", "TYPE_2": "Primary", "LOCATION": "Wissahickon Valley Park", "ADDRESS": "5800 WISSAHICKON AVE", "TYPE": "Pedestrian", "ENTRANCE_T": "Trail - Park"}},{"geometry": {"type": "Point", "coordinates": [-75.18786131785544, 40.0309700508767]}, "type": "Feature", "id": 101, "properties": {"TYPE_2": "Primary", "TYPE": "Pedestrian", "LOCATION": "Wissahickon Valley Park", "ENTRANCE_T": "Trail - Park", "ADDRESS": "LINCOLN & WISSAHICKON"}},{"geometry": {"type": "Point", "coordinates": [-75.20695281623358, 40.01503066379024]}, "type": "Feature", "id": 102, "properties": {"TYPE_2": "Primary", "TYPE": "Pedestrian", "LOCATION": "Wissahickon Valley Park", "ENTRANCE_T": "Trail - Park", "ADDRESS": "RIDGE AVE"}},{"geometry": {"type": "Point", "coordinates": [-75.20566546359038, 40.017073188316296]}, "type": "Feature", "id": 103, "properties": {"TYPE_2": "Primary", "TYPE": "Pedestrian", "LOCATION": "Wissahickon Valley Park", "ENTRANCE_T": "Trail - Park", "ADDRESS": "FREELAND AVE"}},{"geometry": {"type": "Point", "coordinates": [-75.20553740813594, 40.01711469087569]}, "type": "Feature", "id": 104, "properties": {"TYPE_2": "Primary", "TYPE": "Pedestrian", "LOCATION": "Wissahickon Valley Park", "ENTRANCE_T": "Trail - Park", "ADDRESS": "FREELAND AVE"}},{"geometry": {"type": "Point", "coordinates": [-75.20445399496482, 40.017487493006215]}, "type": "Feature", "id": 105, "properties": {"TYPE_2": "Primary", "TYPE": "Pedestrian", "LOCATION": "Wissahickon Valley Park", "ENTRANCE_T": "Trail - Park", "ADDRESS": "RETTA ST"}},{"geometry": {"type": "Point", "coordinates": [-75.20427882095656, 40.017358495370715]}, "type": "Feature", "id": 106, "properties": {"TYPE_2": "Primary", "TYPE": "Pedestrian", "LOCATION": "Wissahickon Valley Park", "ENTRANCE_T": "Trail - Park", "ADDRESS": "RETTA ST"}},{"geometry": {"type": "Point", "coordinates": [-75.20363628414366, 40.019755032506076]}, "type": "Feature", "id": 107, "properties": {"TYPE_2": "Primary", "TYPE": "Pedestrian", "LOCATION": "Wissahickon Valley Park", "ENTRANCE_T": "Trail - Park", "ADDRESS": "VICARIS ST"}},{"geometry": {"type": "Point", "coordinates": [-75.20381471798957, 40.022272244843016]}, "type": "Feature", "id": 108, "properties": {"LOCATION_2": "Daisy Day Camp Building & Bath", "TYPE_2": "Secondary", "LOCATION": "Wissahickon Valley Park", "ADDRESS": "620 HERMIT LN", "TYPE": "Pedestrian", "ENTRANCE_T": "Trail - Park"}},{"geometry": {"type": "Point", "coordinates": [-75.2026695860812, 40.02464735961519]}, "type": "Feature", "id": 109, "properties": {"TYPE_2": "Primary", "TYPE": "Pedestrian and Vehicular", "LOCATION": "Wissahickon Valley Park", "ENTRANCE_T": "Trail - Park, Road", "ADDRESS": "HERMIT LN"}},{"geometry": {"type": "Point", "coordinates": [-75.19943197473665, 40.02592897082986]}, "type": "Feature", "id": 110, "properties": {"TYPE_2": "Primary", "TYPE": "Pedestrian and Vehicular", "LOCATION": "Wissahickon Valley Park", "ENTRANCE_T": "Trail - Park, Road", "ADDRESS": "HERMIT LN"}},{"geometry": {"type": "Point", "coordinates": [-75.19718848911107, 40.02551815416266]}, "type": "Feature", "id": 111, "properties": {"TYPE_2": "Primary", "TYPE": "Pedestrian", "LOCATION": "Wissahickon Valley Park", "ENTRANCE_T": "Trail - Park", "ADDRESS": "HERNY AVE"}},{"geometry": {"type": "Point", "coordinates": [-75.19963537071102, 40.02610890080295]}, "type": "Feature", "id": 112, "properties": {"LOCATION_2": "Walnut Lane Golf Course", "TYPE_2": "Secondary", "LOCATION": "Wissahickon Valley Park", "ADDRESS": "HERNY AVE", "TYPE": "Pedestrian", "ENTRANCE_T": "Trail - Park"}},{"geometry": {"type": "Point", "coordinates": [-75.20117926921314, 40.01707237745464]}, "type": "Feature", "id": 113, "properties": {"TYPE_2": "Primary", "TYPE": "Pedestrian", "LOCATION": "Wissahickon Valley Park", "ENTRANCE_T": "Trail - Park", "ADDRESS": "GYPSY LN"}},{"geometry": {"type": "Point", "coordinates": [-75.20113122362073, 40.01718279933118]}, "type": "Feature", "id": 114, "properties": {"TYPE_2": "Primary", "TYPE": "Pedestrian", "LOCATION": "Wissahickon Valley Park", "ENTRANCE_T": "Trail - Park", "ADDRESS": "GYPSY LN"}},{"geometry": {"type": "Point", "coordinates": [-75.18554842085885, 40.02890545772642]}, "type": "Feature", "id": 115, "properties": {"TYPE_2": "Primary", "TYPE": "Pedestrian", "LOCATION": "Wissahickon Valley Park", "ENTRANCE_T": "Trail - Park", "ADDRESS": "WISSAHICKON AVE"}},{"geometry": {"type": "Point", "coordinates": [-75.18530947433536, 40.02870307058497]}, "type": "Feature", "id": 116, "properties": {"TYPE_2": "Primary", "TYPE": "Pedestrian", "LOCATION": "Wissahickon Valley Park", "ENTRANCE_T": "Trail - Park", "ADDRESS": "WISSAHICKON AVE"}},{"geometry": {"type": "Point", "coordinates": [-75.1863270121852, 40.029507705417615]}, "type": "Feature", "id": 117, "properties": {"TYPE_2": "Primary", "TYPE": "Pedestrian", "LOCATION": "Wissahickon Valley Park", "ENTRANCE_T": "Trail - Park", "ADDRESS": "WISSAHICKON & RITTENHOUSE"}},{"geometry": {"type": "Point", "coordinates": [-75.18856526390259, 40.02936355163268]}, "type": "Feature", "id": 118, "properties": {"TYPE_2": "Primary", "TYPE": "Pedestrian", "LOCATION": "Wissahickon Valley Park", "ENTRANCE_T": "Trail - Park", "ADDRESS": "LINCOLN & WISSAHICKON"}},{"geometry": {"type": "Point", "coordinates": [-75.18884118439986, 40.02948928142262]}, "type": "Feature", "id": 119, "properties": {"TYPE_2": "Primary", "TYPE": "Pedestrian", "LOCATION": "Wissahickon Valley Park", "ENTRANCE_T": "Trail - Park", "ADDRESS": "LINCOLN DR"}},{"geometry": {"type": "Point", "coordinates": [-75.1906409092414, 40.028392989692115]}, "type": "Feature", "id": 120, "properties": {"TYPE_2": "Primary", "TYPE": "Pedestrian", "LOCATION": "Wissahickon Valley Park", "ENTRANCE_T": "Trail - Park", "ADDRESS": "LINCOLN DR"}},{"geometry": {"type": "Point", "coordinates": [-75.19158412890052, 40.02751106014903]}, "type": "Feature", "id": 121, "properties": {"TYPE_2": "Primary", "TYPE": "Pedestrian", "LOCATION": "Wissahickon Valley Park", "ENTRANCE_T": "Trail - Park", "ADDRESS": "LINCOLN DR"}},{"geometry": {"type": "Point", "coordinates": [-75.18552802403921, 40.03210472892183]}, "type": "Feature", "id": 122, "properties": {"TYPE_2": "Secondary", "TYPE": "Vehicular", "LOCATION": "Wissahickon Valley Park", "ENTRANCE_T": "Road", "ADDRESS": "HARVEY ST"}},{"geometry": {"type": "Point", "coordinates": [-75.19053600037621, 40.03772214294685]}, "type": "Feature", "id": 123, "properties": {"TYPE_2": "Primary", "TYPE": "Pedestrian", "LOCATION": "Wissahickon Valley Park", "ENTRANCE_T": "Trail - Park", "ADDRESS": "JOHNSON ST"}},{"geometry": {"type": "Point", "coordinates": [-75.19177210590898, 40.036603997421665]}, "type": "Feature", "id": 124, "properties": {"TYPE_2": "Primary", "TYPE": "Pedestrian and Vehicular", "LOCATION": "Wissahickon Valley Park", "ENTRANCE_T": "Trail - Park, Road", "ADDRESS": "JOHNSON ST"}},{"geometry": {"type": "Point", "coordinates": [-75.19204171466421, 40.03674037936587]}, "type": "Feature", "id": 125, "properties": {"TYPE_2": "Primary", "TYPE": "Pedestrian", "LOCATION": "Wissahickon Valley Park", "ENTRANCE_T": "Trail - Park", "ADDRESS": "JOHNSON ST"}},{"geometry": {"type": "Point", "coordinates": [-75.19183884278107, 40.03802035699685]}, "type": "Feature", "id": 126, "properties": {"TYPE_2": "Primary", "TYPE": "Pedestrian", "LOCATION": "Wissahickon Valley Park", "ENTRANCE_T": "Trail - Park", "ADDRESS": "CLIVEDEN ST"}},{"geometry": {"type": "Point", "coordinates": [-75.19175957068387, 40.03435400920002]}, "type": "Feature", "id": 127, "properties": {"LOCATION_2": "Thomas Mansion", "TYPE_2": "Primary", "LOCATION": "Wissahickon Valley Park", "ADDRESS": "6245 WISSAHICKON AVE", "TYPE": "Pedestrian and Vehicular", "ENTRANCE_T": "Trail - Park, Road, Parking Lot"}},{"geometry": {"type": "Point", "coordinates": [-75.19208232129266, 40.03461083470739]}, "type": "Feature", "id": 128, "properties": {"LOCATION_2": "Jacob Kelter House", "TYPE_2": "Primary", "LOCATION": "Wissahickon Valley Park", "ADDRESS": "6249 WISSAHICKON AVE", "TYPE": "Pedestrian and Vehicular", "ENTRANCE_T": "Trail - Park, Road"}},{"geometry": {"type": "Point", "coordinates": [-75.2164424853896, 40.07686968525895]}, "type": "Feature", "id": 129, "properties": {"TYPE_2": "Primary", "TYPE": "Pedestrian", "LOCATION": "Wissahickon Valley Park", "ENTRANCE_T": "Trail - Park", "ADDRESS": "CREFELD ST"}},{"geometry": {"type": "Point", "coordinates": [-75.21560429826236, 40.07309592532048]}, "type": "Feature", "id": 130, "properties": {"TYPE_2": "Primary", "TYPE": "Pedestrian", "LOCATION": "Wissahickon Valley Park", "ENTRANCE_T": "Trail - Park", "ADDRESS": "CHESTNUT HILL AVE"}},{"geometry": {"type": "Point", "coordinates": [-75.21542528486471, 40.07326821139096]}, "type": "Feature", "id": 131, "properties": {"TYPE_2": "Primary", "TYPE": "Pedestrian", "LOCATION": "Wissahickon Valley Park", "ENTRANCE_T": "Trail - Park", "ADDRESS": "CHESTNUT HILL AVE"}},{"geometry": {"type": "Point", "coordinates": [-75.21644828588123, 40.06899389923791]}, "type": "Feature", "id": 132, "properties": {"TYPE_2": "Primary", "TYPE": "Pedestrian and Vehicular", "LOCATION": "Wissahickon Valley Park", "ENTRANCE_T": "Trail - Park, Road", "ADDRESS": "REX AVE"}},{"geometry": {"type": "Point", "coordinates": [-75.21353305423038, 40.062114601613914]}, "type": "Feature", "id": 133, "properties": {"TYPE_2": "Primary", "TYPE": "Pedestrian", "LOCATION": "Wissahickon Valley Park", "ENTRANCE_T": "Trail - Park", "ADDRESS": "CHEROKEE ST"}},{"geometry": {"type": "Point", "coordinates": [-75.21460245947488, 40.05631555104268]}, "type": "Feature", "id": 134, "properties": {"TYPE_2": "Primary", "TYPE": "Pedestrian", "LOCATION": "Wissahickon Valley Park", "ENTRANCE_T": "Trail - Park", "ADDRESS": "VALLEY GREEN RD"}},{"geometry": {"type": "Point", "coordinates": [-75.21452178069032, 40.056262390319965]}, "type": "Feature", "id": 135, "properties": {"TYPE_2": "Primary", "TYPE": "Pedestrian and Vehicular", "LOCATION": "Wissahickon Valley Park", "ENTRANCE_T": "Trail - Park, Road", "ADDRESS": "VALLEY GREEN RD"}},{"geometry": {"type": "Point", "coordinates": [-75.20923855333261, 40.05440822075429]}, "type": "Feature", "id": 136, "properties": {"TYPE_2": "Primary", "TYPE": "Pedestrian", "LOCATION": "Wissahickon Valley Park", "ENTRANCE_T": "Trail - Park", "ADDRESS": "GATEHOUSE LN"}},{"geometry": {"type": "Point", "coordinates": [-75.20425474042501, 40.05407403931508]}, "type": "Feature", "id": 137, "properties": {"TYPE_2": "Primary", "TYPE": "Pedestrian", "LOCATION": "Wissahickon Valley Park", "ENTRANCE_T": "Trail - Park", "ADDRESS": "MC CALLUM ST"}},{"geometry": {"type": "Point", "coordinates": [-75.20245648571559, 40.05978878543463]}, "type": "Feature", "id": 138, "properties": {"TYPE_2": "Primary", "TYPE": "Pedestrian", "LOCATION": "Wissahickon Valley Park", "ENTRANCE_T": "Trail - Park", "ADDRESS": "SAINT MARTINS LN"}},{"geometry": {"type": "Point", "coordinates": [-75.20003469116358, 40.05748902013139]}, "type": "Feature", "id": 139, "properties": {"TYPE_2": "Secondary", "TYPE": "Pedestrian and Vehicular", "LOCATION": "Wissahickon Valley Park", "ENTRANCE_T": "Road", "ADDRESS": "EMLEN ST"}},{"geometry": {"type": "Point", "coordinates": [-75.20027192985226, 40.05845883124886]}, "type": "Feature", "id": 140, "properties": {"TYPE_2": "Primary", "TYPE": "Pedestrian", "LOCATION": "Wissahickon Valley Park", "ENTRANCE_T": "Trail - Park", "ADDRESS": "EMLEN ST"}},{"geometry": {"type": "Point", "coordinates": [-75.20008985135658, 40.05816982425018]}, "type": "Feature", "id": 141, "properties": {"TYPE_2": "Primary", "TYPE": "Pedestrian", "LOCATION": "Wissahickon Valley Park", "ENTRANCE_T": "Trail - Park", "ADDRESS": "EMLEN ST"}},{"geometry": {"type": "Point", "coordinates": [-75.19721213233615, 40.056361990984776]}, "type": "Feature", "id": 142, "properties": {"TYPE_2": "Primary", "TYPE": "Pedestrian", "LOCATION": "Wissahickon Valley Park", "ENTRANCE_T": "Trail - Park", "ADDRESS": "ALLENS LN"}},{"geometry": {"type": "Point", "coordinates": [-75.19632420507719, 40.05851809034847]}, "type": "Feature", "id": 143, "properties": {"TYPE_2": "Primary", "TYPE": "Pedestrian", "LOCATION": "Wissahickon Valley Park", "ENTRANCE_T": "Trail - Park", "ADDRESS": "CRESHEIM RD"}},{"geometry": {"type": "Point", "coordinates": [-75.20019394593437, 40.06214844596672]}, "type": "Feature", "id": 144, "properties": {"TYPE_2": "Primary", "TYPE": "Pedestrian", "LOCATION": "Wissahickon Valley Park", "ENTRANCE_T": "Trail - Park", "ADDRESS": "CRESHEIM VALLEY DR"}},{"geometry": {"type": "Point", "coordinates": [-75.19855101985594, 40.065445500128945]}, "type": "Feature", "id": 145, "properties": {"TYPE_2": "Secondary", "TYPE": "Vehicular", "LOCATION": "Wissahickon Valley Park", "ENTRANCE_T": "Road", "ADDRESS": "NAVAJO ST"}},{"geometry": {"type": "Point", "coordinates": [-75.20047720091236, 40.064119265532895]}, "type": "Feature", "id": 146, "properties": {"TYPE_2": "Secondary", "TYPE": "Vehicular", "LOCATION": "Wissahickon Valley Park", "ENTRANCE_T": "Road", "ADDRESS": "LINCOLN DR"}},{"geometry": {"type": "Point", "coordinates": [-75.19148782099268, 40.07131045167787]}, "type": "Feature", "id": 147, "properties": {"TYPE_2": "Secondary", "TYPE": "Vehicular", "LOCATION": "Wissahickon Valley Park", "ENTRANCE_T": "Road", "ADDRESS": "CRITTENDEN ST"}},{"geometry": {"type": "Point", "coordinates": [-75.18931723588072, 40.07306880674796]}, "type": "Feature", "id": 148, "properties": {"TYPE_2": "Primary", "TYPE": "Vehicular", "LOCATION": "Wissahickon Valley Park", "ENTRANCE_T": "Road", "ADDRESS": "CRESHEIM VALLEY DR"}},{"geometry": {"type": "Point", "coordinates": [-75.19955218756985, 40.055360879330415]}, "type": "Feature", "id": 149, "properties": {"TYPE_2": "Primary", "TYPE": "Pedestrian", "LOCATION": "Wissahickon Valley Park", "ENTRANCE_T": "Trail - Park", "ADDRESS": "EMLEN ST"}},{"geometry": {"type": "Point", "coordinates": [-75.20981393352197, 40.04702891385045]}, "type": "Feature", "id": 150, "properties": {"TYPE_2": "Primary", "TYPE": "Pedestrian and Vehicular", "LOCATION": "Wissahickon Valley Park", "ENTRANCE_T": "Trail - Park", "ADDRESS": "LIVEZEY LN"}},{"geometry": {"type": "Point", "coordinates": [-75.20876361204682, 40.04323639056231]}, "type": "Feature", "id": 151, "properties": {"TYPE_2": "Primary", "TYPE": "Pedestrian and Vehicular", "LOCATION": "Wissahickon Valley Park", "ENTRANCE_T": "Trail - Park, Road", "ADDRESS": "MOUNT AIRY"}},{"geometry": {"type": "Point", "coordinates": [-75.20514647586677, 40.04368698156916]}, "type": "Feature", "id": 152, "properties": {"TYPE_2": "Primary", "TYPE": "Pedestrian", "LOCATION": "Wissahickon Valley Park", "ENTRANCE_T": "Trail - Park", "ADDRESS": "MOUNT PLEASANT PL"}},{"geometry": {"type": "Point", "coordinates": [-75.19951745847912, 40.05016156017898]}, "type": "Feature", "id": 153, "properties": {"TYPE_2": "Primary", "TYPE": "Pedestrian", "LOCATION": "Wissahickon Valley Park", "ENTRANCE_T": "Trail - Park", "ADDRESS": "MOUNT PLEASANT RD"}},{"geometry": {"type": "Point", "coordinates": [-75.19944447403782, 40.04870101471333]}, "type": "Feature", "id": 154, "properties": {"TYPE_2": "Primary", "TYPE": "Pedestrian", "LOCATION": "Wissahickon Valley Park", "ENTRANCE_T": "Trail - Park", "ADDRESS": "GREENE ST"}},{"geometry": {"type": "Point", "coordinates": [-75.19943491913756, 40.048538774359095]}, "type": "Feature", "id": 155, "properties": {"TYPE_2": "Primary", "TYPE": "Pedestrian", "LOCATION": "Wissahickon Valley Park", "ENTRANCE_T": "Trail - Park", "ADDRESS": "GREENE ST"}},{"geometry": {"type": "Point", "coordinates": [-75.20121201596358, 40.0482869464822]}, "type": "Feature", "id": 156, "properties": {"TYPE_2": "Primary", "TYPE": "Pedestrian", "LOCATION": "Wissahickon Valley Park", "ENTRANCE_T": "Trail - Park", "ADDRESS": "MOUNT PLEASANT RD"}},{"geometry": {"type": "Point", "coordinates": [-75.19957896645815, 40.046495910644424]}, "type": "Feature", "id": 157, "properties": {"TYPE_2": "Primary", "TYPE": "Pedestrian", "LOCATION": "Wissahickon Valley Park", "ENTRANCE_T": "Trail - Park", "ADDRESS": "SHERMAN ST"}},{"geometry": {"type": "Point", "coordinates": [-75.19858584492749, 40.045801564043934]}, "type": "Feature", "id": 158, "properties": {"TYPE_2": "Primary", "TYPE": "Pedestrian", "LOCATION": "Wissahickon Valley Park", "ENTRANCE_T": "Trail - Park", "ADDRESS": "SEDGWICK & SHERMAN"}},{"geometry": {"type": "Point", "coordinates": [-75.20282366035183, 40.045889944490526]}, "type": "Feature", "id": 159, "properties": {"TYPE_2": "Primary", "TYPE": "Pedestrian", "LOCATION": "Wissahickon Valley Park", "ENTRANCE_T": "Trail - Park", "ADDRESS": "MOUNT PLEASANT RD"}},{"geometry": {"type": "Point", "coordinates": [-75.2030882539408, 40.045248712622175]}, "type": "Feature", "id": 160, "properties": {"TYPE_2": "Primary", "TYPE": "Pedestrian", "LOCATION": "Wissahickon Valley Park", "ENTRANCE_T": "Trail - Park", "ADDRESS": "MOUNT PLEASANT RD"}},{"geometry": {"type": "Point", "coordinates": [-75.20322746125775, 40.04402343084557]}, "type": "Feature", "id": 161, "properties": {"TYPE_2": "Primary", "TYPE": "Pedestrian", "LOCATION": "Wissahickon Valley Park", "ENTRANCE_T": "Trail - Park", "ADDRESS": "WISSAHICKON AVE"}},{"geometry": {"type": "Point", "coordinates": [-75.20260099606513, 40.043486344326716]}, "type": "Feature", "id": 162, "properties": {"TYPE_2": "Primary", "TYPE": "Pedestrian", "LOCATION": "Wissahickon Valley Park", "ENTRANCE_T": "Trail - Park", "ADDRESS": "WISSAHICKON AVE"}},{"geometry": {"type": "Point", "coordinates": [-75.20149993075172, 40.0425443226427]}, "type": "Feature", "id": 163, "properties": {"TYPE_2": "Primary", "TYPE": "Pedestrian", "LOCATION": "Wissahickon Valley Park", "ENTRANCE_T": "Trail - Park", "ADDRESS": "WISSAHICKON AVE"}},{"geometry": {"type": "Point", "coordinates": [-75.20026052021134, 40.0443264864844]}, "type": "Feature", "id": 164, "properties": {"TYPE_2": "Primary", "TYPE": "Pedestrian", "LOCATION": "Wissahickon Valley Park", "ENTRANCE_T": "Trail - Park", "ADDRESS": "SEDGWICK ST"}},{"geometry": {"type": "Point", "coordinates": [-75.19912156742232, 40.0452612286845]}, "type": "Feature", "id": 165, "properties": {"TYPE_2": "Primary", "TYPE": "Pedestrian", "LOCATION": "Wissahickon Valley Park", "ENTRANCE_T": "Trail - Park", "ADDRESS": "SEDGWICK ST"}},{"geometry": {"type": "Point", "coordinates": [-75.20286654576844, 40.03948453368264]}, "type": "Feature", "id": 166, "properties": {"TYPE_2": "Primary", "TYPE": "Pedestrian and Vehicular", "LOCATION": "Wissahickon Valley Park", "ENTRANCE_T": "Trail - Park, Road", "ADDRESS": "KITCHENS LN"}},{"geometry": {"type": "Point", "coordinates": [-75.20133756979321, 40.038380765682305]}, "type": "Feature", "id": 167, "properties": {"TYPE_2": "Primary", "TYPE": "Pedestrian", "LOCATION": "Wissahickon Valley Park", "ENTRANCE_T": "Trail - Park", "ADDRESS": "WESTVIEW AVE"}},{"geometry": {"type": "Point", "coordinates": [-75.19856381005074, 40.03746335982097]}, "type": "Feature", "id": 168, "properties": {"TYPE_2": "Primary", "TYPE": "Pedestrian", "LOCATION": "Wissahickon Valley Park", "ENTRANCE_T": "Trail - Park", "ADDRESS": "HORTER ST"}},{"geometry": {"type": "Point", "coordinates": [-75.19828777312932, 40.03640740363678]}, "type": "Feature", "id": 169, "properties": {"TYPE_2": "Primary", "TYPE": "Pedestrian", "LOCATION": "Wissahickon Valley Park", "ENTRANCE_T": "Trail - Park", "ADDRESS": "PARK LINE DR"}},{"geometry": {"type": "Point", "coordinates": [-75.19768076148405, 40.03341353284029]}, "type": "Feature", "id": 170, "properties": {"TYPE_2": "Secondary", "TYPE": "Vehicular", "LOCATION": "Wissahickon Valley Park", "ENTRANCE_T": "Road", "ADDRESS": "WALNUT LN"}},{"geometry": {"type": "Point", "coordinates": [-75.1976279436072, 40.03326467733533]}, "type": "Feature", "id": 171, "properties": {"TYPE_2": "Secondary", "TYPE": "Vehicular", "LOCATION": "Wissahickon Valley Park", "ENTRANCE_T": "Road", "ADDRESS": "WALNUT LN"}},{"geometry": {"type": "Point", "coordinates": [-75.21951315705698, 40.049166860579014]}, "type": "Feature", "id": 172, "properties": {"LOCATION_2": "Saul High School", "TYPE_2": "Secondary", "LOCATION": "Wissahickon Valley Park", "ADDRESS": "7100 HENRY AVE", "TYPE": "Vehicular", "ENTRANCE_T": "Road"}},{"geometry": {"type": "Point", "coordinates": [-75.21994244774298, 40.04936702709484]}, "type": "Feature", "id": 173, "properties": {"LOCATION_2": "Saul High School", "TYPE_2": "Secondary", "LOCATION": "Wissahickon Valley Park", "ADDRESS": "7100 HENRY AVE", "TYPE": "Vehicular", "ENTRANCE_T": "Road"}},{"geometry": {"type": "Point", "coordinates": [-75.22049372666127, 40.04962327737033]}, "type": "Feature", "id": 174, "properties": {"LOCATION_2": "Saul High School", "TYPE_2": "Secondary", "LOCATION": "Wissahickon Valley Park", "ADDRESS": "7100 HENRY AVE", "TYPE": "Vehicular", "ENTRANCE_T": "Road"}},{"geometry": {"type": "Point", "coordinates": [-75.20721505824238, 40.01495724286642]}, "type": "Feature", "id": 175, "properties": {"TYPE_2": "Primary", "TYPE": "Pedestrian", "LOCATION": "East Fairmount Park", "ENTRANCE_T": "Trail - Park", "ADDRESS": "RIDGE AVE"}},{"geometry": {"type": "Point", "coordinates": [-75.2064562658413, 40.014767108067026]}, "type": "Feature", "id": 176, "properties": {"LOCATION_2": "Kelly Drive", "TYPE_2": "Primary", "LOCATION": "East Fairmount Park", "ADDRESS": "KELLY DR", "TYPE": "Pedestrian", "ENTRANCE_T": "Trail - Park"}},{"geometry": {"type": "Point", "coordinates": [-75.2021551469109, 40.010759387134776]}, "type": "Feature", "id": 177, "properties": {"LOCATION_2": "Kelly Drive", "TYPE_2": "Primary", "LOCATION": "East Fairmount Park", "ADDRESS": "KELLY DR", "TYPE": "Pedestrian", "ENTRANCE_T": "Trail - Park, Parkling lot"}},{"geometry": {"type": "Point", "coordinates": [-75.20073716272059, 40.01041288135055]}, "type": "Feature", "id": 178, "properties": {"LOCATION_2": "Kelly Drive", "TYPE_2": "Secondary", "LOCATION": "East Fairmount Park", "ADDRESS": "KELLY DR", "TYPE": "Vehicular", "ENTRANCE_T": "Road"}},{"geometry": {"type": "Point", "coordinates": [-75.19429881970154, 40.00853132328998]}, "type": "Feature", "id": 179, "properties": {"LOCATION_2": "Kelly Drive", "TYPE_2": "Primary", "LOCATION": "East Fairmount Park", "ADDRESS": "KELLY DR", "TYPE": "Pedestrian and Vehicular", "ENTRANCE_T": "Road"}},{"geometry": {"type": "Point", "coordinates": [-75.1915885901922, 40.00736641256722]}, "type": "Feature", "id": 180, "properties": {"LOCATION_2": "Kelly Drive", "TYPE_2": "Primary", "LOCATION": "East Fairmount Park", "ADDRESS": "FERRY RD", "TYPE": "Vehicular", "ENTRANCE_T": "Road"}},{"geometry": {"type": "Point", "coordinates": [-75.19045163198902, 39.99966975888744]}, "type": "Feature", "id": 181, "properties": {"LOCATION_2": "Hunting Park to Kelly Drive", "TYPE_2": "Primary", "LOCATION": "East Fairmount Park", "ADDRESS": "HUNTING PARK", "TYPE": "Vehicular", "ENTRANCE_T": "Road"}},{"geometry": {"type": "Point", "coordinates": [-75.1907973456759, 39.9976181830696]}, "type": "Feature", "id": 182, "properties": {"LOCATION_2": "Robin Hood Dell East", "TYPE_2": "Primary", "LOCATION": "East Fairmount Park", "ADDRESS": "KELLY DR", "TYPE": "Vehicular", "ENTRANCE_T": "Park, Parkling lot"}},{"geometry": {"type": "Point", "coordinates": [-75.19059961987544, 39.996747065169764]}, "type": "Feature", "id": 183, "properties": {"TYPE_2": "Primary", "TYPE": "Pedestrian", "LOCATION": "East Fairmount Park", "ENTRANCE_T": "Trail - Park", "ADDRESS": "STRAWBERRY MANSION DR"}},{"geometry": {"type": "Point", "coordinates": [-75.19131408364294, 39.99484528467571]}, "type": "Feature", "id": 184, "properties": {"TYPE_2": "Primary", "TYPE": "Pedestrian", "LOCATION": "East Fairmount Park", "ENTRANCE_T": "Trail - Park", "ADDRESS": "STRAWBERRY MANSION DR"}},{"geometry": {"type": "Point", "coordinates": [-75.18770837294494, 39.99659829430777]}, "type": "Feature", "id": 185, "properties": {"TYPE_2": "Primary", "TYPE": "Pedestrian", "LOCATION": "East Fairmount Park", "ENTRANCE_T": "Trail - Park", "ADDRESS": "RIDGE AVE"}},{"geometry": {"type": "Point", "coordinates": [-75.18773070002047, 39.996350063960946]}, "type": "Feature", "id": 186, "properties": {"TYPE_2": "Primary", "TYPE": "Vehicular", "LOCATION": "East Fairmount Park", "ENTRANCE_T": "Road, Parking Lot", "ADDRESS": "RIDGE AVE"}},{"geometry": {"type": "Point", "coordinates": [-75.18766293674675, 39.99574732659758]}, "type": "Feature", "id": 187, "properties": {"TYPE_2": "Primary", "TYPE": "Vehicular", "LOCATION": "East Fairmount Park", "ENTRANCE_T": "Road, Parking Lot", "ADDRESS": "RIDGE AVE"}},{"geometry": {"type": "Point", "coordinates": [-75.18739955499913, 39.994905946516525]}, "type": "Feature", "id": 188, "properties": {"TYPE_2": "Primary", "TYPE": "Vehicular", "LOCATION": "East Fairmount Park", "ENTRANCE_T": "Road", "ADDRESS": "RIDGE AVE"}},{"geometry": {"type": "Point", "coordinates": [-75.18648686338244, 39.991815872185704]}, "type": "Feature", "id": 189, "properties": {"TYPE_2": "Primary", "TYPE": "Pedestrian and Vehicular", "LOCATION": "East Fairmount Park", "ENTRANCE_T": "Road, Sidewalks", "ADDRESS": "DAUPHIN DR"}},{"geometry": {"type": "Point", "coordinates": [-75.18737963053745, 39.9887912890235]}, "type": "Feature", "id": 190, "properties": {"TYPE_2": "Primary", "TYPE": "Pedestrian", "LOCATION": "East Fairmount Park", "ENTRANCE_T": "Trail - Park", "ADDRESS": "2102 N 33RD STST"}},{"geometry": {"type": "Point", "coordinates": [-75.1881419853681, 39.98889126788784]}, "type": "Feature", "id": 191, "properties": {"TYPE_2": "Primary", "TYPE": "Pedestrian", "LOCATION": "East Fairmount Park", "ENTRANCE_T": "Trail - Park", "ADDRESS": "2102 N 33RD STST"}},{"geometry": {"type": "Point", "coordinates": [-75.18716692775364, 39.98868928945763]}, "type": "Feature", "id": 192, "properties": {"TYPE_2": "Primary", "TYPE": "Vehicular", "LOCATION": "East Fairmount Park", "ENTRANCE_T": "Road", "ADDRESS": "DIAMOND ST"}},{"geometry": {"type": "Point", "coordinates": [-75.19800362080323, 39.98063046166265]}, "type": "Feature", "id": 193, "properties": {"TYPE_2": "Primary", "TYPE": "Vehicular", "LOCATION": "East Fairmount Park", "ENTRANCE_T": "Road", "ADDRESS": "FOUNTAIN GREEN DR"}},{"geometry": {"type": "Point", "coordinates": [-75.18879879421112, 39.981213906276636]}, "type": "Feature", "id": 194, "properties": {"LOCATION_2": "Main Entrance", "TYPE_2": "Primary", "LOCATION": "East Fairmount Park", "ADDRESS": "RESERVOIR DR", "TYPE": "Pedestrian and Vehicular", "ENTRANCE_T": "Trail - Park, Road"}},{"geometry": {"type": "Point", "coordinates": [-75.19682468922298, 40.00930994847299]}, "type": "Feature", "id": 195, "properties": {"TYPE_2": "Primary", "TYPE": "Vehicular", "LOCATION": "East Fairmount Park", "ENTRANCE_T": "Road", "ADDRESS": "CALUMET ST"}},{"geometry": {"type": "Point", "coordinates": [-75.19167464139171, 39.995324301003365]}, "type": "Feature", "id": 196, "properties": {"TYPE_2": "Primary", "TYPE": "Vehicular", "LOCATION": "East Fairmount Park", "ENTRANCE_T": "Road", "ADDRESS": "RESERVOIR DR"}},{"geometry": {"type": "Point", "coordinates": [-75.19256846608025, 39.99412793408728]}, "type": "Feature", "id": 197, "properties": {"LOCATION_2": "East Park Canoe House", "TYPE_2": "Primary", "LOCATION": "East Fairmount Park", "ADDRESS": "2400 JOHN B KELLY DR", "TYPE": "Vehicular", "ENTRANCE_T": "Road, Parking Lot"}},{"geometry": {"type": "Point", "coordinates": [-75.19383836087985, 39.992751616023]}, "type": "Feature", "id": 198, "properties": {"LOCATION_2": "East Park Canoe House and St Joseph's Boathouse", "TYPE_2": "Primary", "LOCATION": "East Fairmount Park", "ADDRESS": "2400 JOHN B KELLY DR", "TYPE": "Vehicular", "ENTRANCE_T": "Road, Parking Lot"}},{"geometry": {"type": "Point", "coordinates": [-75.19451489586224, 39.992366181810745]}, "type": "Feature", "id": 199, "properties": {"LOCATION_2": "East Park Canoe House and St Joseph's Boathouse", "TYPE_2": "Primary", "LOCATION": "East Fairmount Park", "ADDRESS": "2400 JOHN B KELLY DR", "TYPE": "Vehicular", "ENTRANCE_T": "Road, Parking Lot"}},{"geometry": {"type": "Point", "coordinates": [-75.20002037341777, 39.98725545484537]}, "type": "Feature", "id": 200, "properties": {"LOCATION_2": "Reviewing Stand on Kelly Drive", "TYPE_2": "Primary", "LOCATION": "East Fairmount Park", "ADDRESS": "KELLY DR", "TYPE": "Vehicular", "ENTRANCE_T": "Road, Parking Lot"}},{"geometry": {"type": "Point", "coordinates": [-75.19187448028113, 39.975727709358296]}, "type": "Feature", "id": 201, "properties": {"TYPE_2": "Primary", "TYPE": "Vehicular", "LOCATION": "East Fairmount Park", "ENTRANCE_T": "Road", "ADDRESS": "1700 JOHN B KELLY DR"}},{"geometry": {"type": "Point", "coordinates": [-75.18846843157584, 39.96999789792205]}, "type": "Feature", "id": 202, "properties": {"TYPE_2": "Primary", "TYPE": "Vehicular", "LOCATION": "East Fairmount Park", "ENTRANCE_T": "Road", "ADDRESS": "LEMON HILL DR"}},{"geometry": {"type": "Point", "coordinates": [-75.18476974206459, 39.96945278884487]}, "type": "Feature", "id": 203, "properties": {"TYPE_2": "Primary", "TYPE": "Pedestrian and Vehicular", "LOCATION": "East Fairmount Park", "ENTRANCE_T": "Trail - Park, Road", "ADDRESS": "SEDGLEY DR"}},{"geometry": {"type": "Point", "coordinates": [-75.18475007323828, 39.96919262762903]}, "type": "Feature", "id": 204, "properties": {"TYPE_2": "Primary", "TYPE": "Pedestrian and Vehicular", "LOCATION": "East Fairmount Park", "ENTRANCE_T": "Trail - Park, Road", "ADDRESS": "1 JOHN B KELLY DR"}},{"geometry": {"type": "Point", "coordinates": [-75.18179864409026, 39.967557251173815]}, "type": "Feature", "id": 205, "properties": {"TYPE_2": "Primary", "TYPE": "Pedestrian", "LOCATION": "East Fairmount Park", "ENTRANCE_T": "Trail - Park", "ADDRESS": "KELLY DR"}},{"geometry": {"type": "Point", "coordinates": [-75.1811692077982, 39.967481968857044]}, "type": "Feature", "id": 206, "properties": {"TYPE_2": "Primary", "TYPE": "Vehicular", "LOCATION": "East Fairmount Park", "ENTRANCE_T": "Road", "ADDRESS": "KELLY DR"}},{"geometry": {"type": "Point", "coordinates": [-75.17955302948238, 39.96631714838481]}, "type": "Feature", "id": 207, "properties": {"LOCATION_2": "Philadelphia Museum of Art", "TYPE_2": "Primary", "LOCATION": "East Fairmount Park", "ADDRESS": "ANNE DHARNONCOURT WAY", "TYPE": "Pedestrian and Vehicular", "ENTRANCE_T": "Road, Sidewalks"}},{"geometry": {"type": "Point", "coordinates": [-75.17956098072574, 39.96462372495503]}, "type": "Feature", "id": 208, "properties": {"LOCATION_2": "Philadelphia Museum of Art", "TYPE_2": "Primary", "LOCATION": "East Fairmount Park", "ADDRESS": "2600 BENJ FRANKLIN PKY", "TYPE": "Pedestrian", "ENTRANCE_T": "Plaza"}},{"geometry": {"type": "Point", "coordinates": [-75.1822255925457, 39.96460829568237]}, "type": "Feature", "id": 209, "properties": {"LOCATION_2": "Philadelphia Museum of Art", "TYPE_2": "Primary", "LOCATION": "East Fairmount Park", "ADDRESS": "ANNE DHARNONCOURT WAY", "TYPE": "Pedestrian and Vehicular", "ENTRANCE_T": "Trail - Park, Road"}},{"geometry": {"type": "Point", "coordinates": [-75.18267470774609, 39.964395350323706]}, "type": "Feature", "id": 210, "properties": {"LOCATION_2": "Schuylkill River Trail", "TYPE_2": "Primary", "LOCATION": "East Fairmount Park", "ADDRESS": "SCHUYLKILL BANKS TRAIL", "TYPE": "Pedestrian", "ENTRANCE_T": "Trail - Park"}},{"geometry": {"type": "Point", "coordinates": [-75.1817730185823, 39.96896715409119]}, "type": "Feature", "id": 211, "properties": {"TYPE_2": "Primary", "TYPE": "Pedestrian", "LOCATION": "East Fairmount Park", "ENTRANCE_T": "Trail - Park", "ADDRESS": "PENNSYLVANIA AVE"}},{"geometry": {"type": "Point", "coordinates": [-75.18117602730197, 39.968433140389536]}, "type": "Feature", "id": 212, "properties": {"TYPE_2": "Primary", "TYPE": "Pedestrian", "LOCATION": "East Fairmount Park", "ENTRANCE_T": "Trail - Park", "ADDRESS": "PENNSYLVANIA AVE"}},{"geometry": {"type": "Point", "coordinates": [-75.18658916735211, 39.973574002488355]}, "type": "Feature", "id": 213, "properties": {"TYPE_2": "Primary", "TYPE": "Pedestrian and Vehicular", "LOCATION": "East Fairmount Park", "ENTRANCE_T": "Trail - Park, Road", "ADDRESS": "POPLAR ST"}},{"geometry": {"type": "Point", "coordinates": [-75.18734167450006, 39.97507278429418]}, "type": "Feature", "id": 214, "properties": {"TYPE_2": "Primary", "TYPE": "Pedestrian and Vehicular", "LOCATION": "East Fairmount Park", "ENTRANCE_T": "Trail - Park, Road", "ADDRESS": "GIRARD AVE"}},{"geometry": {"type": "Point", "coordinates": [-75.18962753911015, 39.97706665122338]}, "type": "Feature", "id": 215, "properties": {"TYPE_2": "Primary", "TYPE": "Pedestrian and Vehicular", "LOCATION": "East Fairmount Park", "ENTRANCE_T": "Trail - Park, Road", "ADDRESS": "33RD ST"}},{"geometry": {"type": "Point", "coordinates": [-75.18853387981596, 39.982448780634456]}, "type": "Feature", "id": 216, "properties": {"LOCATION_2": "SEPTA bus turn around", "TYPE_2": "Secondary", "LOCATION": "East Fairmount Park", "ADDRESS": "33RD ST", "TYPE": "Pedestrian and Vehicular", "ENTRANCE_T": "Trail - Park"}},{"geometry": {"type": "Point", "coordinates": [-75.18817658314254, 39.98407522322584]}, "type": "Feature", "id": 217, "properties": {"TYPE_2": "Primary", "TYPE": "Pedestrian", "LOCATION": "East Fairmount Park", "ENTRANCE_T": "Trail - Park", "ADDRESS": "33RD ST"}},{"geometry": {"type": "Point", "coordinates": [-75.18813171240296, 39.98425420798195]}, "type": "Feature", "id": 218, "properties": {"TYPE_2": "Primary", "TYPE": "Pedestrian", "LOCATION": "East Fairmount Park", "ENTRANCE_T": "Trail - Park", "ADDRESS": "33RD ST"}},{"geometry": {"type": "Point", "coordinates": [-75.18721365617448, 39.98845420912085]}, "type": "Feature", "id": 219, "properties": {"LOCATION_2": "East Park Reservoir", "TYPE_2": "Primary", "LOCATION": "East Fairmount Park", "ADDRESS": "33RD ST", "TYPE": "Pedestrian and Vehicular", "ENTRANCE_T": "Trail - Park, Road"}},{"geometry": {"type": "Point", "coordinates": [-75.18701630449827, 39.98936995836092]}, "type": "Feature", "id": 220, "properties": {"LOCATION_2": "Mander Playground", "TYPE_2": "Primary", "LOCATION": "East Fairmount Park", "ADDRESS": "2102 N 33RD ST", "TYPE": "Pedestrian", "ENTRANCE_T": "Trail - Park"}},{"geometry": {"type": "Point", "coordinates": [-75.18681588615915, 39.99030331756061]}, "type": "Feature", "id": 221, "properties": {"TYPE_2": "Primary", "TYPE": "Pedestrian", "LOCATION": "East Fairmount Park", "ENTRANCE_T": "Trail - Park", "ADDRESS": "33RD ST"}},{"geometry": {"type": "Point", "coordinates": [-75.20756753835667, 40.0064389792949]}, "type": "Feature", "id": 222, "properties": {"TYPE_2": "Secondary", "TYPE": "Vehicular", "LOCATION": "West Fairmount Park", "ENTRANCE_T": "Road", "ADDRESS": "NEILL DR"}},{"geometry": {"type": "Point", "coordinates": [-75.20340596075562, 40.00834614119678]}, "type": "Feature", "id": 223, "properties": {"LOCATION_2": "Schuylkill Expressway", "TYPE_2": "Secondary", "LOCATION": "West Fairmount Park", "ADDRESS": "SCHUYLKILL EXPY", "TYPE": "Vehicular", "ENTRANCE_T": "Road"}},{"geometry": {"type": "Point", "coordinates": [-75.19703053816383, 40.00902500148472]}, "type": "Feature", "id": 224, "properties": {"LOCATION_2": "Falls Bridge", "TYPE_2": "Primary", "LOCATION": "East Fairmount Park", "ADDRESS": "FALLS RD", "TYPE": "Pedestrian and Vehicular", "ENTRANCE_T": "Road, Bridge"}},{"geometry": {"type": "Point", "coordinates": [-75.1978327170011, 40.00772448583416]}, "type": "Feature", "id": 225, "properties": {"LOCATION_2": "Falls Bridge, MLK Drive", "TYPE_2": "Primary", "LOCATION": "West Fairmount Park", "ADDRESS": "FALLS RD", "TYPE": "Pedestrian and Vehicular", "ENTRANCE_T": "Road, Bridge"}},{"geometry": {"type": "Point", "coordinates": [-75.19350141112244, 40.00670236488958]}, "type": "Feature", "id": 226, "properties": {"LOCATION_2": "Schuylkill Expressway", "TYPE_2": "Secondary", "LOCATION": "West Fairmount Park", "ADDRESS": "ROOSEVELT BLVD", "TYPE": "Vehicular", "ENTRANCE_T": "Road, Bridge"}},{"geometry": {"type": "Point", "coordinates": [-75.19264891351783, 40.0020613585838]}, "type": "Feature", "id": 227, "properties": {"LOCATION_2": "West Comfort Station", "TYPE_2": "Primary", "LOCATION": "West Fairmount Park", "ADDRESS": "2700 WEST RIVER DR", "TYPE": "Pedestrian and Vehicular", "ENTRANCE_T": "Trail - Park, Parking Lot"}},{"geometry": {"type": "Point", "coordinates": [-75.1927157960685, 40.00140488664921]}, "type": "Feature", "id": 228, "properties": {"LOCATION_2": "West Comfort Station", "TYPE_2": "Primary", "LOCATION": "West Fairmount Park", "ADDRESS": "2700 WEST RIVER DR", "TYPE": "Pedestrian and Vehicular", "ENTRANCE_T": "Trail - Park, Parking Lot"}},{"geometry": {"type": "Point", "coordinates": [-75.19257513864862, 40.00138649649313]}, "type": "Feature", "id": 229, "properties": {"TYPE_2": "Primary", "TYPE": "Vehicular", "LOCATION": "West Fairmount Park", "ENTRANCE_T": "Trail - Park, Parking Lot", "ADDRESS": "WEST RIVER DR"}},{"geometry": {"type": "Point", "coordinates": [-75.19288407645126, 40.00042646148813]}, "type": "Feature", "id": 230, "properties": {"TYPE_2": "Primary", "TYPE": "Vehicular", "LOCATION": "West Fairmount Park", "ENTRANCE_T": "Trail - Park, Parking Lot", "ADDRESS": "WEST RIVER DR"}},{"geometry": {"type": "Point", "coordinates": [-75.19492175667446, 39.995722015788566]}, "type": "Feature", "id": 231, "properties": {"TYPE_2": "Primary", "TYPE": "Pedestrian and Vehicular", "LOCATION": "West Fairmount Park", "ENTRANCE_T": "Road", "ADDRESS": "STRAWBERRY MANSION DR"}},{"geometry": {"type": "Point", "coordinates": [-75.19972058092031, 39.99189927105672]}, "type": "Feature", "id": 232, "properties": {"TYPE_2": "Primary", "TYPE": "Pedestrian and Vehicular", "LOCATION": "West Fairmount Park", "ENTRANCE_T": "Trail - Park, Parking Lot", "ADDRESS": "WEST RIVER DR"}},{"geometry": {"type": "Point", "coordinates": [-75.19861122786709, 39.992718523409295]}, "type": "Feature", "id": 233, "properties": {"TYPE_2": "Primary", "TYPE": "Pedestrian and Vehicular", "LOCATION": "West Fairmount Park", "ENTRANCE_T": "Trail - Park, Parking Lot", "ADDRESS": "WEST RIVER DR"}},{"geometry": {"type": "Point", "coordinates": [-75.20250346634475, 39.98974792413784]}, "type": "Feature", "id": 234, "properties": {"TYPE_2": "Primary", "TYPE": "Pedestrian and Vehicular", "LOCATION": "West Fairmount Park", "ENTRANCE_T": "Trail - Park, Parking Lot", "ADDRESS": "WEST RIVER DR"}},{"geometry": {"type": "Point", "coordinates": [-75.20333375993084, 39.98868167047761]}, "type": "Feature", "id": 235, "properties": {"TYPE_2": "Primary", "TYPE": "Pedestrian and Vehicular", "LOCATION": "West Fairmount Park", "ENTRANCE_T": "Trail - Park, Parking Lot", "ADDRESS": "WEST RIVER DR"}},{"geometry": {"type": "Point", "coordinates": [-75.20352640571456, 39.98870978348071]}, "type": "Feature", "id": 236, "properties": {"LOCATION_2": "West River Drive Stables", "TYPE_2": "Primary", "LOCATION": "West Fairmount Park", "ADDRESS": "1802 WEST RIVER DR", "TYPE": "Pedestrian and Vehicular", "ENTRANCE_T": "Trail - Park, Road"}},{"geometry": {"type": "Point", "coordinates": [-75.2025262791308, 39.98996596256802]}, "type": "Feature", "id": 237, "properties": {"LOCATION_2": "West River Drive Stables", "TYPE_2": "Primary", "LOCATION": "West Fairmount Park", "ADDRESS": "1802 WEST RIVER DR", "TYPE": "Pedestrian and Vehicular", "ENTRANCE_T": "Trail - Park, Road"}},{"geometry": {"type": "Point", "coordinates": [-75.20521340879282, 39.98657004191723]}, "type": "Feature", "id": 238, "properties": {"TYPE_2": "Primary", "TYPE": "Pedestrian and Vehicular", "LOCATION": "West Fairmount Park", "ENTRANCE_T": "Trail - Park, Road", "ADDRESS": "MONTGOMERY DR"}},{"geometry": {"type": "Point", "coordinates": [-75.20632908414467, 39.98278355121685]}, "type": "Feature", "id": 239, "properties": {"TYPE_2": "Primary", "TYPE": "Vehicular", "LOCATION": "West Fairmount Park", "ENTRANCE_T": "Trail - Park, Parking Lot", "ADDRESS": "BLACK RD"}},{"geometry": {"type": "Point", "coordinates": [-75.20479788737046, 39.980733174113475]}, "type": "Feature", "id": 240, "properties": {"TYPE_2": "Primary", "TYPE": "Pedestrian and Vehicular", "LOCATION": "West Fairmount Park", "ENTRANCE_T": "Trail - Park, Parking Lot", "ADDRESS": "WEST RIVER DR"}},{"geometry": {"type": "Point", "coordinates": [-75.2458890426338, 39.94372877134592]}, "type": "Feature", "id": 241, "properties": {"TYPE_2": "Primary", "TYPE": "Pedestrian", "LOCATION": "Cobbs Creek Park", "ENTRANCE_T": "Trail - Park", "ADDRESS": "BALTIMORE AVE"}},{"geometry": {"type": "Point", "coordinates": [-75.24637546661118, 39.917276891461654]}, "type": "Feature", "id": 242, "properties": {"LOCATION_2": "Blue Bell Tavern", "TYPE_2": "Primary", "LOCATION": "Cobbs Creek Park", "ADDRESS": "WOODLAND AVE", "TYPE": "Pedestrian and Vehicular", "ENTRANCE_T": "Trail - Park, Road, Parkling lot"}},{"geometry": {"type": "Point", "coordinates": [-75.2456546287992, 39.92411899267303]}, "type": "Feature", "id": 243, "properties": {"TYPE_2": "Primary", "TYPE": "Pedestrian", "LOCATION": "Cobbs Creek Park", "ENTRANCE_T": "Trail - Park", "ADDRESS": "COBBS CREEK PKWY"}},{"geometry": {"type": "Point", "coordinates": [-75.24544145482415, 39.924615596105134]}, "type": "Feature", "id": 244, "properties": {"TYPE_2": "Primary", "TYPE": "Pedestrian", "LOCATION": "Cobbs Creek Park", "ENTRANCE_T": "Trail - Park", "ADDRESS": "COBBS CREEK PKWY"}},{"geometry": {"type": "Point", "coordinates": [-75.24585032842796, 39.92592500433934]}, "type": "Feature", "id": 245, "properties": {"TYPE_2": "Primary", "TYPE": "Pedestrian", "LOCATION": "Cobbs Creek Park", "ENTRANCE_T": "Trail - Park", "ADDRESS": "COBBS CREEK PKWY"}},{"geometry": {"type": "Point", "coordinates": [-75.24518654982613, 39.92791542282158]}, "type": "Feature", "id": 246, "properties": {"TYPE_2": "Primary", "TYPE": "Pedestrian", "LOCATION": "Cobbs Creek Park", "ENTRANCE_T": "Trail - Park", "ADDRESS": "S 67TH ST"}},{"geometry": {"type": "Point", "coordinates": [-75.24317015684939, 39.92953728255159]}, "type": "Feature", "id": 247, "properties": {"TYPE_2": "Primary", "TYPE": "Pedestrian", "LOCATION": "Cobbs Creek Park", "ENTRANCE_T": "Trail - Park", "ADDRESS": "S 65TH ST"}},{"geometry": {"type": "Point", "coordinates": [-75.24440128680475, 39.929765489746856]}, "type": "Feature", "id": 248, "properties": {"TYPE_2": "Primary", "TYPE": "Pedestrian", "LOCATION": "Cobbs Creek Park", "ENTRANCE_T": "Trail - Park", "ADDRESS": "S 65TH ST"}},{"geometry": {"type": "Point", "coordinates": [-75.24316861434993, 39.93463559064088]}, "type": "Feature", "id": 249, "properties": {"TYPE_2": "Primary", "TYPE": "Pedestrian", "LOCATION": "Cobbs Creek Park", "ENTRANCE_T": "Trail - Park", "ADDRESS": "COBBS CREEK PKWY"}},{"geometry": {"type": "Point", "coordinates": [-75.24078369401099, 39.933204481667886]}, "type": "Feature", "id": 250, "properties": {"TYPE_2": "Secondary", "TYPE": "Vehicular", "LOCATION": "Cobbs Creek Park", "ENTRANCE_T": "Road", "ADDRESS": "COBBS CREEK PKWY"}},{"geometry": {"type": "Point", "coordinates": [-75.2396266878032, 39.93367379104862]}, "type": "Feature", "id": 251, "properties": {"TYPE_2": "Primary", "TYPE": "Pedestrian", "LOCATION": "Cobbs Creek Park", "ENTRANCE_T": "Trail - Park", "ADDRESS": "COBBS CREEK PKWY"}},{"geometry": {"type": "Point", "coordinates": [-75.2371073257776, 39.93371013311623]}, "type": "Feature", "id": 252, "properties": {"TYPE_2": "Primary", "TYPE": "Pedestrian", "LOCATION": "Cobbs Creek Park", "ENTRANCE_T": "Trail - Park", "ADDRESS": "COBBS CREEK PKWY"}},{"geometry": {"type": "Point", "coordinates": [-75.23404000066276, 39.937848144396334]}, "type": "Feature", "id": 253, "properties": {"TYPE_2": "Primary", "TYPE": "Pedestrian", "LOCATION": "Cobbs Creek Park", "ENTRANCE_T": "Trail - Park", "ADDRESS": "COBBS CREEK PKWY"}},{"geometry": {"type": "Point", "coordinates": [-75.23699516251388, 39.9379496572352]}, "type": "Feature", "id": 254, "properties": {"TYPE_2": "Primary", "TYPE": "Pedestrian", "LOCATION": "Cobbs Creek Park", "ENTRANCE_T": "Trail - Park", "ADDRESS": "COBBS CREEK PKWY"}},{"geometry": {"type": "Point", "coordinates": [-75.2423816886387, 39.94018158223752]}, "type": "Feature", "id": 255, "properties": {"TYPE_2": "Secondary", "TYPE": "Vehicular", "LOCATION": "Cobbs Creek Park", "ENTRANCE_T": "Road", "ADDRESS": "WHITBY AVE"}},{"geometry": {"type": "Point", "coordinates": [-75.23965870356311, 39.94002826478849]}, "type": "Feature", "id": 256, "properties": {"TYPE_2": "Primary", "TYPE": "Pedestrian", "LOCATION": "Cobbs Creek Park", "ENTRANCE_T": "Trail - Park", "ADDRESS": "WHITBY AVE"}},{"geometry": {"type": "Point", "coordinates": [-75.23664193252377, 39.94025210047736]}, "type": "Feature", "id": 257, "properties": {"TYPE_2": "Primary", "TYPE": "Pedestrian", "LOCATION": "Cobbs Creek Park", "ENTRANCE_T": "Trail - Park", "ADDRESS": "COBBS CREEK PKWY"}},{"geometry": {"type": "Point", "coordinates": [-75.23803546775487, 39.94141857694079]}, "type": "Feature", "id": 258, "properties": {"TYPE_2": "Primary", "TYPE": "Pedestrian and Vehicular", "LOCATION": "Cobbs Creek Park", "ENTRANCE_T": "Trail - Park, Road, Parkling lot", "ADDRESS": "COBBS CREEK PKWY"}},{"geometry": {"type": "Point", "coordinates": [-75.23831560002404, 39.94140616650509]}, "type": "Feature", "id": 259, "properties": {"TYPE_2": "Primary", "TYPE": "Pedestrian", "LOCATION": "Cobbs Creek Park", "ENTRANCE_T": "Trail - Park", "ADDRESS": "COBBS CREEK PKWY"}},{"geometry": {"type": "Point", "coordinates": [-75.23876587502555, 39.939660596418626]}, "type": "Feature", "id": 260, "properties": {"TYPE_2": "Primary", "TYPE": "Pedestrian", "LOCATION": "Cobbs Creek Park", "ENTRANCE_T": "Trail - Park", "ADDRESS": "WHITBY AVE"}},{"geometry": {"type": "Point", "coordinates": [-75.23678593088725, 39.94017171017056]}, "type": "Feature", "id": 261, "properties": {"TYPE_2": "Primary", "TYPE": "Pedestrian", "LOCATION": "Cobbs Creek Park", "ENTRANCE_T": "Trail - Park", "ADDRESS": "WHITBY AVE"}},{"geometry": {"type": "Point", "coordinates": [-75.23935185754554, 39.942657424767276]}, "type": "Feature", "id": 262, "properties": {"TYPE_2": "Primary", "TYPE": "Pedestrian", "LOCATION": "Cobbs Creek Park", "ENTRANCE_T": "Trail - Park", "ADDRESS": "COBBS CREEK PKWY"}},{"geometry": {"type": "Point", "coordinates": [-75.19265522406928, 40.027477702677466]}, "type": "Feature", "id": 263, "properties": {"TYPE_2": "Primary", "TYPE": "Pedestrian and Vehicular", "LOCATION": "Wissahickon Valley Park", "ENTRANCE_T": "Trail - Park, Road, Parkling lot", "ADDRESS": "FORBIDDEN DR"}},{"geometry": {"type": "Point", "coordinates": [-75.19268759073346, 39.99480615400277]}, "type": "Feature", "id": 264, "properties": {"TYPE_2": "Primary", "TYPE": "Pedestrian and Vehicular", "LOCATION": "East Fairmount Park", "ENTRANCE_T": "Trail - Park, Road", "ADDRESS": "STRAWBERRY MANSION DR"}},{"geometry": {"type": "Point", "coordinates": [-75.20626276644447, 39.97861793466966]}, "type": "Feature", "id": 265, "properties": {"LOCATION_2": "CEDAR GROVE", "TYPE_2": "Primary", "LOCATION": "West Fairmount Park", "ADDRESS": "4001 LANSDOWNE DR", "TYPE": "Pedestrian and Vehicular", "ENTRANCE_T": "Trail - Park, Road"}},{"geometry": {"type": "Point", "coordinates": [-75.20660850325713, 39.978693699958576]}, "type": "Feature", "id": 266, "properties": {"LOCATION_2": "Memorial Hall", "TYPE_2": "Primary", "LOCATION": "West Fairmount Park", "ADDRESS": "4231 N CONCOURSE DR", "TYPE": "Pedestrian and Vehicular", "ENTRANCE_T": "Trail - Park, Road"}},{"geometry": {"type": "Point", "coordinates": [-75.11614108337913, 40.04002835795474]}, "type": "Feature", "id": 267, "properties": {"LOCATION_2": "Hammond and Nedro Building", "TYPE_2": "Primary", "LOCATION": "Tacony Creek Park", "ADDRESS": "HAMMOND AVE", "TYPE": "Pedestrian", "ENTRANCE_T": "Park Entry"}},{"geometry": {"type": "Point", "coordinates": [-75.11267620917724, 40.037377212176715]}, "type": "Feature", "id": 268, "properties": {"LOCATION_2": "Rising Sun Office", "TYPE_2": "Secondary", "LOCATION": "Tacony Creek Park", "ADDRESS": "5658 RISING SUN AVE", "TYPE": "Vehicular", "ENTRANCE_T": "Road, Parking Lot"}},{"geometry": {"type": "Point", "coordinates": [-75.11472845777557, 40.0370973012431]}, "type": "Feature", "id": 269, "properties": {"TYPE_2": "Secondary", "TYPE": "Pedestrian", "LOCATION": "Tacony Creek Park", "ENTRANCE_T": "Trail - Park", "ADDRESS": "CHEW AVE"}},{"geometry": {"type": "Point", "coordinates": [-75.11344056541961, 40.03633487294542]}, "type": "Feature", "id": 270, "properties": {"TYPE_2": "Primary", "TYPE": "Pedestrian", "LOCATION": "Tacony Creek Park", "ENTRANCE_T": "Trail - Park", "ADDRESS": "RISING SUN AVE"}},{"geometry": {"type": "Point", "coordinates": [-75.11328083731078, 40.036256128864956]}, "type": "Feature", "id": 271, "properties": {"TYPE_2": "Primary", "TYPE": "Pedestrian", "LOCATION": "Tacony Creek Park", "ENTRANCE_T": "Trail - Park", "ADDRESS": "RISING SUN AVE"}},{"geometry": {"type": "Point", "coordinates": [-75.11009510910088, 40.034045129492846]}, "type": "Feature", "id": 272, "properties": {"LOCATION_2": "Recreation Equipment", "TYPE_2": "Primary", "LOCATION": "Tacony Creek Park", "ADDRESS": "GARLAND ST", "TYPE": "Pedestrian", "ENTRANCE_T": "Trail - Park"}},{"geometry": {"type": "Point", "coordinates": [-75.11129699619359, 40.031078840390954]}, "type": "Feature", "id": 273, "properties": {"TYPE_2": "Primary", "TYPE": "Pedestrian", "LOCATION": "Tacony Creek Park", "ENTRANCE_T": "Trail - Park", "ADDRESS": "E TABOR RD"}},{"geometry": {"type": "Point", "coordinates": [-75.1119783769945, 40.03101905136482]}, "type": "Feature", "id": 274, "properties": {"TYPE_2": "Primary", "TYPE": "Pedestrian", "LOCATION": "Tacony Creek Park", "ENTRANCE_T": "Trail - Park", "ADDRESS": "E OLNEY AVE"}},{"geometry": {"type": "Point", "coordinates": [-75.11150533157782, 40.03083188906349]}, "type": "Feature", "id": 275, "properties": {"TYPE_2": "Primary", "TYPE": "Pedestrian", "LOCATION": "Tacony Creek Park", "ENTRANCE_T": "Trail - Park", "ADDRESS": "E TABOR RD"}},{"geometry": {"type": "Point", "coordinates": [-75.11129462482434, 40.030912708076514]}, "type": "Feature", "id": 276, "properties": {"TYPE_2": "Primary", "TYPE": "Pedestrian", "LOCATION": "Tacony Creek Park", "ENTRANCE_T": "Trail - Park", "ADDRESS": "E TABOR RD"}},{"geometry": {"type": "Point", "coordinates": [-75.11471851039035, 40.03444096939993]}, "type": "Feature", "id": 277, "properties": {"LOCATION_2": "Small Welcome Park - Tacony Park Sign", "TYPE_2": "Secondary", "LOCATION": "Tacony Creek Park", "ADDRESS": "RISING SUN AVE", "TYPE": "Pedestrian", "ENTRANCE_T": "Plaza"}},{"geometry": {"type": "Point", "coordinates": [-75.11036376102594, 40.0312171104167]}, "type": "Feature", "id": 278, "properties": {"TYPE_2": "Secondary", "TYPE": "Pedestrian", "LOCATION": "Tacony Creek Park", "ENTRANCE_T": "Park Entry", "ADDRESS": "E TABOR RD"}},{"geometry": {"type": "Point", "coordinates": [-75.11376562378045, 40.0274562177301]}, "type": "Feature", "id": 279, "properties": {"TYPE_2": "Primary", "TYPE": "Pedestrian", "LOCATION": "Tacony Creek Park", "ENTRANCE_T": "Trail - Park", "ADDRESS": "ROOSEVELT BLVD"}},{"geometry": {"type": "Point", "coordinates": [-75.11364584639286, 40.02823018150045]}, "type": "Feature", "id": 280, "properties": {"TYPE_2": "Primary", "TYPE": "Pedestrian", "LOCATION": "Tacony Creek Park", "ENTRANCE_T": "Trail - Park", "ADDRESS": "BINGHAM ST"}},{"geometry": {"type": "Point", "coordinates": [-75.11429984482797, 40.0265004862133]}, "type": "Feature", "id": 281, "properties": {"TYPE_2": "Primary", "TYPE": "Pedestrian", "LOCATION": "Tacony Creek Park", "ENTRANCE_T": "Trail - Park", "ADDRESS": "RORER ST"}},{"geometry": {"type": "Point", "coordinates": [-75.11281519213415, 40.02180736564833]}, "type": "Feature", "id": 282, "properties": {"LOCATION_2": "Vaird Boys/Girls Club", "TYPE_2": "Primary", "LOCATION": "Tacony Creek Park", "ADDRESS": "4800 WHITAKER AVE", "TYPE": "Pedestrian and Vehicular", "ENTRANCE_T": "Trail - Park, Road"}},{"geometry": {"type": "Point", "coordinates": [-75.10927472614149, 40.02343241148465]}, "type": "Feature", "id": 283, "properties": {"TYPE_2": "Secondary", "TYPE": "Pedestrian", "LOCATION": "Tacony Creek Park", "ENTRANCE_T": "Trail - Park", "ADDRESS": "PENNWAY ST"}},{"geometry": {"type": "Point", "coordinates": [-75.11105645087859, 40.02133673191447]}, "type": "Feature", "id": 284, "properties": {"TYPE_2": "Primary", "TYPE": "Pedestrian", "LOCATION": "Tacony Creek Park", "ENTRANCE_T": "Trail - Park", "ADDRESS": "WYOMING AVE"}},{"geometry": {"type": "Point", "coordinates": [-75.10390530258398, 40.02100266151385]}, "type": "Feature", "id": 285, "properties": {"TYPE_2": "Primary", "TYPE": "Pedestrian", "LOCATION": "Tacony Creek Park", "ENTRANCE_T": "Trail - Park", "ADDRESS": "FISHERS LN"}},{"geometry": {"type": "Point", "coordinates": [-75.10778233612787, 40.016679797872854]}, "type": "Feature", "id": 286, "properties": {"LOCATION_2": "Juniata Golf Course", "TYPE_2": "Primary", "LOCATION": "Tacony Creek Park", "ADDRESS": "RAMONA AVE", "TYPE": "Pedestrian", "ENTRANCE_T": "Trail - Park"}},{"geometry": {"type": "Point", "coordinates": [-75.10710699884366, 40.01575098496922]}, "type": "Feature", "id": 287, "properties": {"LOCATION_2": "Juniata Golf Course", "TYPE_2": "Primary", "LOCATION": "Tacony Creek Park", "ADDRESS": "RAMONA AVE", "TYPE": "Pedestrian", "ENTRANCE_T": "Trail - Park"}},{"geometry": {"type": "Point", "coordinates": [-75.10721635421369, 40.01473660567768]}, "type": "Feature", "id": 288, "properties": {"LOCATION_2": "Ferko Playground", "TYPE_2": "Primary", "LOCATION": "Tacony Creek Park", "ADDRESS": "I ST & CAYUGA", "TYPE": "Pedestrian", "ENTRANCE_T": "Trail - Park"}},{"geometry": {"type": "Point", "coordinates": [-75.10500880362927, 40.01442837625177]}, "type": "Feature", "id": 289, "properties": {"LOCATION_2": "Ferko Playground", "TYPE_2": "Primary", "LOCATION": "Tacony Creek Park", "ADDRESS": "1101 E CAYUGA ST", "TYPE": "Pedestrian", "ENTRANCE_T": "Trail - Park"}},{"geometry": {"type": "Point", "coordinates": [-75.10357428712044, 40.0142414717359]}, "type": "Feature", "id": 290, "properties": {"LOCATION_2": "Ferko Playground", "TYPE_2": "Primary", "LOCATION": "Tacony Creek Park", "ADDRESS": "1101 E CAYUGA ST", "TYPE": "Pedestrian and Vehicular", "ENTRANCE_T": "Park Entry"}},{"geometry": {"type": "Point", "coordinates": [-75.10219486906715, 40.01406201165716]}, "type": "Feature", "id": 291, "properties": {"LOCATION_2": "Ferko Playground", "TYPE_2": "Primary", "LOCATION": "Tacony Creek Park", "ADDRESS": "1101 E CAYUGA ST", "TYPE": "Pedestrian and Vehicular", "ENTRANCE_T": "Park Entry"}},{"geometry": {"type": "Point", "coordinates": [-75.10154251742908, 40.01399734422557]}, "type": "Feature", "id": 292, "properties": {"LOCATION_2": "Juniata Golf Course", "TYPE_2": "Primary", "LOCATION": "Tacony Creek Park", "ADDRESS": "1391 E CAYUGA ST", "TYPE": "Pedestrian and Vehicular", "ENTRANCE_T": "Park Entry"}},{"geometry": {"type": "Point", "coordinates": [-75.10172311022534, 40.01863833575461]}, "type": "Feature", "id": 293, "properties": {"LOCATION_2": "Juniata Golf Course", "TYPE_2": "Secondary", "LOCATION": "Tacony Creek Park", "ADDRESS": "1391 E CAYUGA ST", "TYPE": "Vehicular", "ENTRANCE_T": "Park Entry"}},{"geometry": {"type": "Point", "coordinates": [-75.06977441716829, 40.090229064008234]}, "type": "Feature", "id": 294, "properties": {"LOCATION_2": "Fox Chase Farm", "TYPE_2": "Primary", "LOCATION": "Pennypack Creek Park", "ADDRESS": "PINE RD", "TYPE": "Pedestrian and Vehicular", "ENTRANCE_T": "Park Entry"}},{"geometry": {"type": "Point", "coordinates": [-75.07221745699293, 40.08861243198811]}, "type": "Feature", "id": 295, "properties": {"LOCATION_2": "Fox Chase Farm", "TYPE_2": "Primary", "LOCATION": "Pennypack Creek Park", "ADDRESS": "PINE RD", "TYPE": "Pedestrian and Vehicular", "ENTRANCE_T": "Park Entry"}},{"geometry": {"type": "Point", "coordinates": [-75.06617148567751, 40.09227082890559]}, "type": "Feature", "id": 296, "properties": {"TYPE_2": "Primary", "TYPE": "Pedestrian", "LOCATION": "Pennypack Creek Park", "ENTRANCE_T": "Trail - Park", "ADDRESS": "PINE & BLOOMFIELD"}},{"geometry": {"type": "Point", "coordinates": [-75.06883935809266, 40.090471191657]}, "type": "Feature", "id": 297, "properties": {"TYPE_2": "Primary", "TYPE": "Pedestrian", "LOCATION": "Pennypack Creek Park", "ENTRANCE_T": "Trail - Park", "ADDRESS": "PINE RD"}},{"geometry": {"type": "Point", "coordinates": [-75.07010231488802, 40.08962581514784]}, "type": "Feature", "id": 298, "properties": {"TYPE_2": "Primary", "TYPE": "Pedestrian and Vehicular", "LOCATION": "Pennypack Creek Park", "ENTRANCE_T": "Trail - Park, Road, Parking lot", "ADDRESS": "PINE RD"}},{"geometry": {"type": "Point", "coordinates": [-75.07428468757017, 40.0868174128646]}, "type": "Feature", "id": 299, "properties": {"TYPE_2": "Primary", "TYPE": "Pedestrian", "LOCATION": "Pennypack Creek Park", "ENTRANCE_T": "Trail - Park", "ADDRESS": "PINE RD"}},{"geometry": {"type": "Point", "coordinates": [-75.06482226579531, 40.084546343808434]}, "type": "Feature", "id": 300, "properties": {"TYPE_2": "Primary", "TYPE": "Pedestrian", "LOCATION": "Pennypack Creek Park", "ENTRANCE_T": "Trail - Park", "ADDRESS": "VERREE RD"}},{"geometry": {"type": "Point", "coordinates": [-75.0622395387074, 40.084522689281194]}, "type": "Feature", "id": 301, "properties": {"TYPE_2": "Secondary", "TYPE": "Pedestrian", "LOCATION": "Pennypack Creek Park", "ENTRANCE_T": "Road", "ADDRESS": "VERREE RD"}},{"geometry": {"type": "Point", "coordinates": [-75.06144963303117, 40.08519828339623]}, "type": "Feature", "id": 302, "properties": {"TYPE_2": "Primary", "TYPE": "Pedestrian and Vehicular", "LOCATION": "Pennypack Creek Park", "ENTRANCE_T": "Trail - Park, Road, Parking lot", "ADDRESS": "VERREE RD"}},{"geometry": {"type": "Point", "coordinates": [-75.06036679105065, 40.08568649756614]}, "type": "Feature", "id": 303, "properties": {"TYPE_2": "Primary", "TYPE": "Pedestrian", "LOCATION": "Pennypack Creek Park", "ENTRANCE_T": "Trail - Park", "ADDRESS": "VERREE RD"}},{"geometry": {"type": "Point", "coordinates": [-75.06054001141455, 40.08580409942848]}, "type": "Feature", "id": 304, "properties": {"TYPE_2": "Primary", "TYPE": "Pedestrian", "LOCATION": "Pennypack Creek Park", "ENTRANCE_T": "Trail - Park", "ADDRESS": "VERREE RD"}},{"geometry": {"type": "Point", "coordinates": [-75.05871160457383, 40.08731657192963]}, "type": "Feature", "id": 305, "properties": {"LOCATION_2": "PP Environmental Center", "TYPE_2": "Primary", "LOCATION": "Pennypack Creek Park", "ADDRESS": "VERREE RD", "TYPE": "Pedestrian and Vehicular", "ENTRANCE_T": "Trail - Park, Road, Parking lot"}},{"geometry": {"type": "Point", "coordinates": [-75.05759446419185, 40.08981951959185]}, "type": "Feature", "id": 306, "properties": {"TYPE_2": "Primary", "TYPE": "Pedestrian", "LOCATION": "Pennypack Creek Park", "ENTRANCE_T": "Trail - Park", "ADDRESS": "BLOOMFIELD AVE"}},{"geometry": {"type": "Point", "coordinates": [-75.05795403479641, 40.08996399714334]}, "type": "Feature", "id": 307, "properties": {"TYPE_2": "Primary", "TYPE": "Pedestrian", "LOCATION": "Pennypack Creek Park", "ENTRANCE_T": "Trail - Park", "ADDRESS": "BLOOMFIELD AVE"}},{"geometry": {"type": "Point", "coordinates": [-75.06090697738337, 40.090237370506465]}, "type": "Feature", "id": 308, "properties": {"TYPE_2": "Primary", "TYPE": "Pedestrian", "LOCATION": "Pennypack Creek Park", "ENTRANCE_T": "Trail - Park", "ADDRESS": "BLOOMFIELD AVE"}},{"geometry": {"type": "Point", "coordinates": [-75.06364309172332, 40.09046033286213]}, "type": "Feature", "id": 309, "properties": {"TYPE_2": "Primary", "TYPE": "Pedestrian", "LOCATION": "Pennypack Creek Park", "ENTRANCE_T": "Trail - Park", "ADDRESS": "BLOOMFIELD AVE"}},{"geometry": {"type": "Point", "coordinates": [-75.06405429722787, 40.0905507557186]}, "type": "Feature", "id": 310, "properties": {"TYPE_2": "Primary", "TYPE": "Pedestrian", "LOCATION": "Pennypack Creek Park", "ENTRANCE_T": "Trail - Park", "ADDRESS": "BLOOMFIELD AVE"}},{"geometry": {"type": "Point", "coordinates": [-75.05862095376828, 40.087077342493174]}, "type": "Feature", "id": 311, "properties": {"TYPE_2": "Secondary", "TYPE": "Pedestrian", "LOCATION": "Pennypack Creek Park", "ENTRANCE_T": "Trail - Park", "ADDRESS": "VERREE RD"}},{"geometry": {"type": "Point", "coordinates": [-75.06395684522924, 40.083212398768715]}, "type": "Feature", "id": 312, "properties": {"LOCATION_2": "May be a rogue trail", "TYPE_2": "Secondary", "LOCATION": "Pennypack Creek Park", "ADDRESS": "VERREE RD", "TYPE": "Pedestrian", "ENTRANCE_T": "Trail - Park"}},{"geometry": {"type": "Point", "coordinates": [-75.0680344382131, 40.0804185211779]}, "type": "Feature", "id": 313, "properties": {"TYPE_2": "Primary", "TYPE": "Pedestrian and Vehicular", "LOCATION": "Pennypack Creek Park", "ENTRANCE_T": "Trail - Park, Road, Parking lot", "ADDRESS": "VERREE RD"}},{"geometry": {"type": "Point", "coordinates": [-75.06745782871039, 40.07546681183882]}, "type": "Feature", "id": 314, "properties": {"TYPE_2": "Primary", "TYPE": "Pedestrian", "LOCATION": "Pennypack Creek Park", "ENTRANCE_T": "Trail - Park", "ADDRESS": "TABOR AVE"}},{"geometry": {"type": "Point", "coordinates": [-75.05174252827143, 40.08045733377575]}, "type": "Feature", "id": 315, "properties": {"TYPE_2": "Secondary", "TYPE": "Vehicular", "LOCATION": "Pennypack Creek Park", "ENTRANCE_T": "Road", "ADDRESS": "KREWSTOWN RD"}},{"geometry": {"type": "Point", "coordinates": [-75.05288844258837, 40.07938811216184]}, "type": "Feature", "id": 316, "properties": {"LOCATION_2": "Krewstown Stables Barn", "TYPE_2": "Secondary", "LOCATION": "Pennypack Creek Park", "ADDRESS": "8640 KREWSTOWN RD", "TYPE": "Pedestrian and Vehicular", "ENTRANCE_T": "Trail - Park, Road, Parking lot"}},{"geometry": {"type": "Point", "coordinates": [-75.05350783229123, 40.07878329474486]}, "type": "Feature", "id": 317, "properties": {"LOCATION_2": "Krewstown Stables Barn", "TYPE_2": "Secondary", "LOCATION": "Pennypack Creek Park", "ADDRESS": "8640 KREWSTOWN RD", "TYPE": "Pedestrian and Vehicular", "ENTRANCE_T": "Trail - Park, Road, Parking lot"}},{"geometry": {"type": "Point", "coordinates": [-75.04973273648534, 40.08100223848961]}, "type": "Feature", "id": 318, "properties": {"LOCATION_2": "May be a rogue trail", "TYPE_2": "Primary", "LOCATION": "Pennypack Creek Park", "ADDRESS": "KREWSTOWN RD", "TYPE": "Pedestrian", "ENTRANCE_T": "Trail - Park"}},{"geometry": {"type": "Point", "coordinates": [-75.04496078810568, 40.07975141173379]}, "type": "Feature", "id": 319, "properties": {"LOCATION_2": "May be a rogue trail", "TYPE_2": "Secondary", "LOCATION": "Pennypack Creek Park", "ADDRESS": "DALE RD", "TYPE": "Pedestrian", "ENTRANCE_T": "Trail - Park"}},{"geometry": {"type": "Point", "coordinates": [-75.05377333789387, 40.077719057730846]}, "type": "Feature", "id": 320, "properties": {"TYPE_2": "Primary", "TYPE": "Pedestrian", "LOCATION": "Pennypack Creek Park", "ENTRANCE_T": "Trail - Park", "ADDRESS": "KREWSTOWN RD"}},{"geometry": {"type": "Point", "coordinates": [-75.05466673091074, 40.076662481173464]}, "type": "Feature", "id": 321, "properties": {"TYPE_2": "Primary", "TYPE": "Pedestrian and Vehicular", "LOCATION": "Pennypack Creek Park", "ENTRANCE_T": "Trail - Park, Road, Parking lot", "ADDRESS": "KREWSTOWN RD"}},{"geometry": {"type": "Point", "coordinates": [-75.05596711051857, 40.07506237483712]}, "type": "Feature", "id": 322, "properties": {"TYPE_2": "Primary", "TYPE": "Pedestrian", "LOCATION": "Pennypack Creek Park", "ENTRANCE_T": "Trail - Park", "ADDRESS": "KREWSTOWN RD"}},{"geometry": {"type": "Point", "coordinates": [-75.05603360012579, 40.07414244485618]}, "type": "Feature", "id": 323, "properties": {"TYPE_2": "Primary", "TYPE": "Pedestrian", "LOCATION": "Pennypack Creek Park", "ENTRANCE_T": "Trail - Park", "ADDRESS": "KREWSTOWN RD"}},{"geometry": {"type": "Point", "coordinates": [-75.05593530862409, 40.073328484759955]}, "type": "Feature", "id": 324, "properties": {"TYPE_2": "Secondary", "TYPE": "Vehicular", "LOCATION": "Pennypack Creek Park", "ENTRANCE_T": "Road", "ADDRESS": "ALGON AVE"}},{"geometry": {"type": "Point", "coordinates": [-75.05453962446327, 40.074073707323265]}, "type": "Feature", "id": 325, "properties": {"TYPE_2": "Primary", "TYPE": "Pedestrian", "LOCATION": "Pennypack Creek Park", "ENTRANCE_T": "Trail - Park", "ADDRESS": "ALGON AVE"}},{"geometry": {"type": "Point", "coordinates": [-75.0686827520546, 40.072986057609846]}, "type": "Feature", "id": 326, "properties": {"TYPE_2": "Primary", "TYPE": "Pedestrian", "LOCATION": "Pennypack Creek Park", "ENTRANCE_T": "Trail - Park", "ADDRESS": "TABOR AVE"}},{"geometry": {"type": "Point", "coordinates": [-75.06892142344509, 40.07265147333788]}, "type": "Feature", "id": 327, "properties": {"TYPE_2": "Primary", "TYPE": "Pedestrian", "LOCATION": "Pennypack Creek Park", "ENTRANCE_T": "Trail - Park", "ADDRESS": "TABOR AVE"}},{"geometry": {"type": "Point", "coordinates": [-75.06890848480892, 40.07177406844742]}, "type": "Feature", "id": 328, "properties": {"TYPE_2": "Primary", "TYPE": "Pedestrian", "LOCATION": "Pennypack Creek Park", "ENTRANCE_T": "Trail - Park", "ADDRESS": "TABOR AVE"}},{"geometry": {"type": "Point", "coordinates": [-75.06886425978726, 40.07207582964724]}, "type": "Feature", "id": 329, "properties": {"LOCATION_2": "May be a rogue trail", "TYPE_2": "Secondary", "LOCATION": "Pennypack Creek Park", "ADDRESS": "TABOR AVE", "TYPE": "Pedestrian", "ENTRANCE_T": "Trail - Park"}},{"geometry": {"type": "Point", "coordinates": [-75.0599378549193, 40.07196995648832]}, "type": "Feature", "id": 330, "properties": {"LOCATION_2": "May be a rogue trail", "TYPE_2": "Secondary", "LOCATION": "Pennypack Creek Park", "ADDRESS": "DORCAS ST", "TYPE": "Pedestrian and Vehicular", "ENTRANCE_T": "Trail - Park"}},{"geometry": {"type": "Point", "coordinates": [-75.04661164212146, 40.075854610481855]}, "type": "Feature", "id": 331, "properties": {"TYPE_2": "Primary", "TYPE": "Pedestrian", "LOCATION": "Pennypack Creek Park", "ENTRANCE_T": "Trail - Park", "ADDRESS": "BENTON AVE"}},{"geometry": {"type": "Point", "coordinates": [-75.04578316194923, 40.0749086662839]}, "type": "Feature", "id": 332, "properties": {"TYPE_2": "Primary", "TYPE": "Pedestrian", "LOCATION": "Pennypack Creek Park", "ENTRANCE_T": "Trail - Park", "ADDRESS": "BUSTLETON AVE"}},{"geometry": {"type": "Point", "coordinates": [-75.04201115677604, 40.075455476241196]}, "type": "Feature", "id": 333, "properties": {"TYPE_2": "Primary", "TYPE": "Pedestrian", "LOCATION": "Pennypack Creek Park", "ENTRANCE_T": "Trail - Park", "ADDRESS": "WINCHESTER AVE"}},{"geometry": {"type": "Point", "coordinates": [-75.04317069794256, 40.07706551308125]}, "type": "Feature", "id": 334, "properties": {"LOCATION_2": "Maternity B.V.M. Roman Catholic Church", "TYPE_2": "Primary", "LOCATION": "Pennypack Creek Park", "ADDRESS": "WINCHESTER AVE", "TYPE": "Pedestrian and Vehicular", "ENTRANCE_T": "Road"}},{"geometry": {"type": "Point", "coordinates": [-75.04029772931685, 40.07304682115414]}, "type": "Feature", "id": 335, "properties": {"TYPE_2": "Primary", "TYPE": "Pedestrian", "LOCATION": "Pennypack Creek Park", "ENTRANCE_T": "Trail - Park", "ADDRESS": "PENNYPACK PATH"}},{"geometry": {"type": "Point", "coordinates": [-75.0407615363381, 40.068930402540175]}, "type": "Feature", "id": 336, "properties": {"TYPE_2": "Primary", "TYPE": "Pedestrian", "LOCATION": "Pennypack Creek Park", "ENTRANCE_T": "Trail - Park", "ADDRESS": "WINCHESTER AVE"}},{"geometry": {"type": "Point", "coordinates": [-75.0401405324025, 40.06843707373397]}, "type": "Feature", "id": 337, "properties": {"TYPE_2": "Secondary", "TYPE": "Vehicular", "LOCATION": "Pennypack Creek Park", "ENTRANCE_T": "Road", "ADDRESS": "ROOSEVELT BLVD"}},{"geometry": {"type": "Point", "coordinates": [-75.04170052673052, 40.06492164467317]}, "type": "Feature", "id": 338, "properties": {"TYPE_2": "Secondary", "TYPE": "Vehicular", "LOCATION": "Pennypack Creek Park", "ENTRANCE_T": "Road", "ADDRESS": "ROOSEVELT BLVD"}},{"geometry": {"type": "Point", "coordinates": [-75.04190331882809, 40.06528237689009]}, "type": "Feature", "id": 339, "properties": {"TYPE_2": "Primary", "TYPE": "Pedestrian", "LOCATION": "Pennypack Creek Park", "ENTRANCE_T": "Trail - Park", "ADDRESS": "ROOSEVELT BLVD"}},{"geometry": {"type": "Point", "coordinates": [-75.04033847690675, 40.067224594153856]}, "type": "Feature", "id": 340, "properties": {"LOCATION_2": "NE Chamber of Commerce, Axe Factory Office", "TYPE_2": "Primary", "LOCATION": "Pennypack Creek Park", "ADDRESS": "88605 E ROOSEVELT BLVD", "TYPE": "Pedestrian and Vehicular", "ENTRANCE_T": "Trail - Park, Road, Parking lot"}},{"geometry": {"type": "Point", "coordinates": [-75.0405441863525, 40.06677008056185]}, "type": "Feature", "id": 341, "properties": {"LOCATION_2": "NE Chamber of Commerce, Axe Factory Office", "TYPE_2": "Primary", "LOCATION": "Pennypack Creek Park", "ADDRESS": "88605 E ROOSEVELT BLVD", "TYPE": "Pedestrian and Vehicular", "ENTRANCE_T": "Trail - Park, Road, Parking lot"}},{"geometry": {"type": "Point", "coordinates": [-75.03856917304824, 40.06760600099351]}, "type": "Feature", "id": 342, "properties": {"TYPE_2": "Primary", "TYPE": "Pedestrian and Vehicular", "LOCATION": "Pennypack Creek Park", "ENTRANCE_T": "Trail - Park, Road", "ADDRESS": "WINCHESTER AVE"}},{"geometry": {"type": "Point", "coordinates": [-75.03721604274565, 40.066822719333146]}, "type": "Feature", "id": 343, "properties": {"LOCATION_2": "<Null>", "TYPE_2": "Primary", "LOCATION": "Pennypack Creek Park", "ADDRESS": "WINCHESTER AVE", "TYPE": "Pedestrian", "ENTRANCE_T": "Trail - Park"}},{"geometry": {"type": "Point", "coordinates": [-75.03678481832425, 40.06656461536309]}, "type": "Feature", "id": 344, "properties": {"LOCATION_2": "<Null>", "TYPE_2": "Primary", "LOCATION": "Pennypack Creek Park", "ADDRESS": "WINCHESTER AVE", "TYPE": "Pedestrian", "ENTRANCE_T": "Trail - Park"}},{"geometry": {"type": "Point", "coordinates": [-75.03567588144493, 40.065892781887314]}, "type": "Feature", "id": 345, "properties": {"TYPE_2": "Primary", "TYPE": "Pedestrian", "LOCATION": "Pennypack Creek Park", "ENTRANCE_T": "Trail - Park", "ADDRESS": "WINCHESTER AVE"}},{"geometry": {"type": "Point", "coordinates": [-75.03504024535484, 40.06553951260154]}, "type": "Feature", "id": 346, "properties": {"TYPE_2": "Primary", "TYPE": "Pedestrian", "LOCATION": "Pennypack Creek Park", "ENTRANCE_T": "Trail - Park", "ADDRESS": "WINCHESTER AVE"}},{"geometry": {"type": "Point", "coordinates": [-75.03355769815178, 40.06120221157529]}, "type": "Feature", "id": 347, "properties": {"LOCATION_2": "May be a rogue trail", "TYPE_2": "Secondary", "LOCATION": "Pennypack Creek Park", "ADDRESS": "WINCHESTER AVE", "TYPE": "Pedestrian", "ENTRANCE_T": "Trail - Park"}},{"geometry": {"type": "Point", "coordinates": [-75.0336647825117, 40.06096872338277]}, "type": "Feature", "id": 348, "properties": {"LOCATION_2": "May be a rogue trail", "TYPE_2": "Secondary", "LOCATION": "Pennypack Creek Park", "ADDRESS": "WINCHESTER AVE", "TYPE": "Pedestrian", "ENTRANCE_T": "Trail - Park"}},{"geometry": {"type": "Point", "coordinates": [-75.03390750131209, 40.060477249862394]},